{
  "schema": "s09_osm_food",
  "retrieval_date": "2026-04-22",
  "source": "OpenStreetMap Overpass API",
  "source_url": "https://overpass-api.de/api/interpreter",
  "query_bbox": "4.2,2.7,13.9,14.7 (Nigeria)",
  "count": 1627,
  "elements": [
    {
      "type": "node",
      "id": 31450344,
      "lat": 9.0472689,
      "lon": 7.5362034,
      "tags": {
        "amenity": "restaurant",
        "name": "Fish"
      }
    },
    {
      "type": "node",
      "id": 501520605,
      "lat": 13.0252292,
      "lon": 5.1926852,
      "tags": {
        "addr:city": "arkilla",
        "addr:street": "Abbaty",
        "alt_name": "Arkilla",
        "amenity": "bar",
        "brewery": "yes",
        "min_age": "60",
        "name": "Abbaty 2pac",
        "opening_hours:covid19": "restricted",
        "source": "streetlevel imagery",
        "source:date": "16/05/2017"
      }
    },
    {
      "type": "node",
      "id": 544297029,
      "lat": 10.5486078,
      "lon": 7.4592312,
      "tags": {
        "amenity": "restaurant",
        "cuisine": "chinese",
        "name": "Kung Fu Chinese Restaurant"
      }
    },
    {
      "type": "node",
      "id": 544297961,
      "lat": 10.5475918,
      "lon": 7.4505505,
      "tags": {
        "amenity": "restaurant",
        "cuisine": "pizza;regional;chinese;fish_and_chips;international",
        "name": "Big Treat"
      }
    },
    {
      "type": "node",
      "id": 552939923,
      "lat": 10.5436064,
      "lon": 7.4315809,
      "tags": {
        "amenity": "restaurant",
        "cuisine": "lebanese",
        "name": "Byblos"
      }
    },
    {
      "type": "node",
      "id": 560941625,
      "lat": 10.5164408,
      "lon": 7.4403544,
      "tags": {
        "addr:street": "Independence Way",
        "amenity": "fast_food",
        "cuisine": "nigerian",
        "name": "Food Planet",
        "operator": "Private"
      }
    },
    {
      "type": "node",
      "id": 560941626,
      "lat": 10.51552,
      "lon": 7.4405553,
      "tags": {
        "amenity": "fast_food",
        "cuisine": "nigerian",
        "name": "Sweeties"
      }
    },
    {
      "type": "node",
      "id": 560983277,
      "lat": 9.0405615,
      "lon": 7.4654403,
      "tags": {
        "amenity": "restaurant",
        "cuisine": "nigerian",
        "name": "Bukkateen"
      }
    },
    {
      "type": "node",
      "id": 889008138,
      "lat": 9.0619204,
      "lon": 7.4176986,
      "tags": {
        "amenity": "fast_food",
        "name": "Mr Biggs"
      }
    },
    {
      "type": "node",
      "id": 1770349355,
      "lat": 10.5118602,
      "lon": 7.4543399,
      "tags": {
        "amenity": "restaurant",
        "name": "Food Palace"
      }
    },
    {
      "type": "node",
      "id": 1770350047,
      "lat": 10.5114066,
      "lon": 7.4546027,
      "tags": {
        "amenity": "restaurant",
        "name": "Mr. Biggs"
      }
    },
    {
      "type": "node",
      "id": 2216184200,
      "lat": 9.0723109,
      "lon": 7.4908125,
      "tags": {
        "amenity": "restaurant",
        "cuisine": "regional",
        "name": "Reno's"
      }
    },
    {
      "type": "node",
      "id": 2428047638,
      "lat": 11.8944194,
      "lon": 3.4614475,
      "tags": {
        "amenity": "cafe",
        "internet_access": "service",
        "name": "cyber cafe",
        "project:mappingforniger": "yes",
        "source": "survey"
      }
    },
    {
      "type": "node",
      "id": 2941745556,
      "lat": 9.1064084,
      "lon": 7.4842151,
      "tags": {
        "amenity": "restaurant",
        "cuisine": "regional",
        "name": "Panama Balangu"
      }
    },
    {
      "type": "node",
      "id": 3178525161,
      "lat": 13.6393895,
      "lon": 4.0408259,
      "tags": {
        "amenity": "restaurant",
        "cuisine": "chicken",
        "name": "Restaurant 421",
        "name:ar": "مطعم ٤٢١"
      }
    },
    {
      "type": "node",
      "id": 3218374583,
      "lat": 13.0399819,
      "lon": 3.2101744,
      "tags": {
        "amenity": "fast_food",
        "name": "Restaurant Kanni"
      }
    },
    {
      "type": "node",
      "id": 3218376480,
      "lat": 13.0400204,
      "lon": 3.2081113,
      "tags": {
        "amenity": "fast_food",
        "name": "Restaurant Regal",
        "source": "servey"
      }
    },
    {
      "type": "node",
      "id": 3218387297,
      "lat": 13.0421469,
      "lon": 3.2000376,
      "tags": {
        "amenity": "fast_food",
        "name": "Chez Roland",
        "phone": "94946991"
      }
    },
    {
      "type": "node",
      "id": 3224622598,
      "lat": 13.0447546,
      "lon": 3.1929556,
      "tags": {
        "amenity": "bar",
        "name": "Koubeyni",
        "source": "survey"
      }
    },
    {
      "type": "node",
      "id": 3227968490,
      "lat": 13.0447653,
      "lon": 3.2009202,
      "tags": {
        "amenity": "internet_cafe",
        "name": "Cyber Café Communal"
      }
    },
    {
      "type": "node",
      "id": 3382412670,
      "lat": 10.5294521,
      "lon": 7.4338766,
      "tags": {
        "amenity": "bar",
        "name": "Command Guest House"
      }
    },
    {
      "type": "node",
      "id": 3626577265,
      "lat": 9.2879109,
      "lon": 7.4159923,
      "tags": {
        "amenity": "restaurant",
        "capacity": "200",
        "name": "Veritas Cafeteria",
        "opening_hours": "08:00-20:00",
        "smoking": "no",
        "takeaway": "yes"
      }
    },
    {
      "type": "node",
      "id": 3709911769,
      "lat": 13.8064706,
      "lon": 5.256156,
      "tags": {
        "amenity": "cafe",
        "name": "IVOIORE",
        "opening_hours": "24/7",
        "project:mappingforniger": "yes"
      }
    },
    {
      "type": "node",
      "id": 3906055483,
      "lat": 13.4989248,
      "lon": 7.1069468,
      "tags": {
        "amenity": "restaurant",
        "name": "Restaurant Martaba"
      }
    },
    {
      "type": "node",
      "id": 3941237524,
      "lat": 13.4956124,
      "lon": 7.1172315,
      "tags": {
        "amenity": "restaurant",
        "name": "Restaurant Rosario",
        "source": "survey, bing"
      }
    },
    {
      "type": "node",
      "id": 4166609460,
      "lat": 9.8384501,
      "lon": 3.3572211,
      "tags": {
        "amenity": "bar",
        "cuisine": "regional",
        "name": "CHEZ MAMAN FRIDA",
        "phone": "+22962711995"
      }
    },
    {
      "type": "node",
      "id": 4219094797,
      "lat": 9.0523088,
      "lon": 7.485962,
      "tags": {
        "addr:housenumber": "252A",
        "addr:street": "Herbert Macaulay Way",
        "amenity": "restaurant",
        "cuisine": "international",
        "name": "Panache",
        "opening_hours": "Mo-Su 11:00-22:00",
        "phone": "+23496233313"
      }
    },
    {
      "type": "node",
      "id": 4234317389,
      "lat": 9.0723578,
      "lon": 7.4890086,
      "tags": {
        "addr:street": "Adetokunbo Ademola Crescent",
        "amenity": "fast_food",
        "name": "Pizzarama"
      }
    },
    {
      "type": "node",
      "id": 4235488038,
      "lat": 9.0617923,
      "lon": 7.4180455,
      "tags": {
        "amenity": "cafe",
        "name": "Southern Fried Chicken"
      }
    },
    {
      "type": "node",
      "id": 4314552848,
      "lat": 13.4918041,
      "lon": 7.1248154,
      "tags": {
        "amenity": "fast_food",
        "name": "Restaurant HALAL",
        "project:pdevii": "yes",
        "source": "survey",
        "takeaway": "yes"
      }
    },
    {
      "type": "node",
      "id": 4314700228,
      "lat": 13.4914575,
      "lon": 7.1245337,
      "tags": {
        "amenity": "restaurant",
        "name": "Restaurant PLAZA",
        "project:pdevii": "yes",
        "source": "survey"
      }
    },
    {
      "type": "node",
      "id": 4314707042,
      "lat": 13.4906299,
      "lon": 7.1268403,
      "tags": {
        "amenity": "restaurant",
        "name": "Restaurant&Pension Le Royal"
      }
    },
    {
      "type": "node",
      "id": 4316047151,
      "lat": 13.491776,
      "lon": 7.1176599,
      "tags": {
        "amenity": "restaurant",
        "name": "Maquis AMAZONE",
        "project:pdevii": "yes",
        "source": "survey",
        "survey:date": "2016-07-22"
      }
    },
    {
      "type": "node",
      "id": 4316047154,
      "lat": 13.4917549,
      "lon": 7.1175553,
      "tags": {
        "amenity": "restaurant",
        "name": "Restaurant FARA'A Mai Jirgui",
        "project:pdevii": "yes",
        "source": "survey",
        "survey:date": "2016-07-22"
      }
    },
    {
      "type": "node",
      "id": 4317351512,
      "lat": 13.4947824,
      "lon": 7.1123417,
      "tags": {
        "amenity": "restaurant",
        "name": "Elh. Madougou Mai Zabi",
        "project:pdevii": "yes",
        "source": "survey"
      }
    },
    {
      "type": "node",
      "id": 4318254851,
      "lat": 13.4931627,
      "lon": 7.1034915,
      "tags": {
        "amenity": "bar",
        "name": "Prestige Bar Pacifique",
        "project:pdevii": "yes",
        "source": "survey"
      }
    },
    {
      "type": "node",
      "id": 4318505191,
      "lat": 13.4926655,
      "lon": 7.1105231,
      "tags": {
        "amenity": "restaurant",
        "name": "Restaurant Maggi",
        "project:pdevii": "yes",
        "source": "survey"
      }
    },
    {
      "type": "node",
      "id": 4599721500,
      "lat": 9.0764448,
      "lon": 7.4249562,
      "tags": {
        "amenity": "cafe",
        "name": "Kafeteria"
      }
    },
    {
      "type": "node",
      "id": 4599721501,
      "lat": 9.076732,
      "lon": 7.4251792,
      "tags": {
        "amenity": "cafe",
        "name": "Sumptuous"
      }
    },
    {
      "type": "node",
      "id": 4637364692,
      "lat": 9.1021327,
      "lon": 7.4805193,
      "tags": {
        "amenity": "restaurant",
        "name": "traffic"
      }
    },
    {
      "type": "node",
      "id": 4637395590,
      "lat": 9.0699244,
      "lon": 7.4896341,
      "tags": {
        "amenity": "restaurant",
        "name": "river plate secret garden",
        "name:en": "river plate secret garden"
      }
    },
    {
      "type": "node",
      "id": 4743783297,
      "lat": 11.1221084,
      "lon": 2.9247258,
      "tags": {
        "amenity": "restaurant",
        "cuisine": "african",
        "name": "AEFI",
        "source": "cartotourisme",
        "swimming_pool": "no"
      }
    },
    {
      "type": "node",
      "id": 4760503230,
      "lat": 9.0558721,
      "lon": 7.4766597,
      "tags": {
        "amenity": "cafe",
        "name": "under the mango tree",
        "name:en": "under the mango tree"
      }
    },
    {
      "type": "node",
      "id": 4912505240,
      "lat": 10.5475755,
      "lon": 7.4568973,
      "tags": {
        "amenity": "restaurant",
        "name": "7 Star"
      }
    },
    {
      "type": "node",
      "id": 4912514285,
      "lat": 10.5363721,
      "lon": 7.4686203,
      "tags": {
        "amenity": "restaurant",
        "cuisine": "chinese",
        "name": "Chinese Restaurant"
      }
    },
    {
      "type": "node",
      "id": 4912631106,
      "lat": 10.5227378,
      "lon": 7.433268,
      "tags": {
        "amenity": "restaurant",
        "name": "Chicken Republic"
      }
    },
    {
      "type": "node",
      "id": 4912680271,
      "lat": 10.5379294,
      "lon": 7.4414173,
      "tags": {
        "amenity": "fast_food",
        "name": "Shawarma"
      }
    },
    {
      "type": "node",
      "id": 4912799963,
      "lat": 10.5327341,
      "lon": 7.4520472,
      "tags": {
        "amenity": "fast_food",
        "name": "One Eleven 1-11"
      }
    },
    {
      "type": "node",
      "id": 4912799964,
      "lat": 10.5325205,
      "lon": 7.4521384,
      "tags": {
        "amenity": "fast_food",
        "name": "Nine Eleven 9-11"
      }
    },
    {
      "type": "node",
      "id": 5170060622,
      "lat": 11.1005507,
      "lon": 7.7200787,
      "tags": {
        "amenity": "restaurant",
        "capacity": "30",
        "cuisine": "burger;sandwich;chicken;ice_cream",
        "name": "Mr Biggs",
        "outdoor_seating": "no",
        "smoking": "outside",
        "takeaway": "yes"
      }
    },
    {
      "type": "node",
      "id": 5226030821,
      "lat": 9.0760557,
      "lon": 7.4733216,
      "tags": {
        "amenity": "restaurant",
        "name": "poisson"
      }
    },
    {
      "type": "node",
      "id": 5234383121,
      "lat": 9.0143064,
      "lon": 7.6355122,
      "tags": {
        "amenity": "bar",
        "name": "Tuturu wine shops",
        "opening_hours": "24/7"
      }
    },
    {
      "type": "node",
      "id": 5241268222,
      "lat": 9.0144933,
      "lon": 7.6358483,
      "tags": {
        "amenity": "bar",
        "name": "NNPC Joint"
      }
    },
    {
      "type": "node",
      "id": 5342211521,
      "lat": 9.0210915,
      "lon": 7.6511596,
      "tags": {
        "amenity": "bar",
        "name": "New Nyanya Palmwine Joint"
      }
    },
    {
      "type": "node",
      "id": 5448332307,
      "lat": 9.074629,
      "lon": 7.4946321,
      "tags": {
        "amenity": "restaurant",
        "name": "Oriental Restaurant"
      }
    },
    {
      "type": "node",
      "id": 5448332308,
      "lat": 9.0746973,
      "lon": 7.4950061,
      "tags": {
        "amenity": "restaurant",
        "name": "Zuma Grill"
      }
    },
    {
      "type": "node",
      "id": 5448332309,
      "lat": 9.0742998,
      "lon": 7.4946972,
      "tags": {
        "amenity": "bar",
        "name": "Capital Bar"
      }
    },
    {
      "type": "node",
      "id": 5448332310,
      "lat": 9.0738642,
      "lon": 7.4944187,
      "tags": {
        "amenity": "restaurant",
        "name": "Fulani Bar & Grill"
      }
    },
    {
      "type": "node",
      "id": 5448332311,
      "lat": 9.0744243,
      "lon": 7.4943882,
      "tags": {
        "amenity": "restaurant",
        "name": "Suya Grill"
      }
    },
    {
      "type": "node",
      "id": 5622679121,
      "lat": 9.0733522,
      "lon": 7.4712319,
      "tags": {
        "addr:city": "Abuja",
        "addr:housenumber": "112",
        "addr:street": "Aminu Kano Crescent",
        "alt_name": "Kentucky Fried Chicken",
        "alt_name:en": "KFC Aminu Kano",
        "amenity": "fast_food",
        "branch": "Wuse 2",
        "brand": "KFC",
        "brand:wikidata": "Q524757",
        "brand:wikipedia": "en:KFC",
        "cuisine": "chicken",
        "name": "KFC",
        "takeaway": "yes"
      }
    },
    {
      "type": "node",
      "id": 5738793043,
      "lat": 9.0745705,
      "lon": 7.4953794,
      "tags": {
        "amenity": "restaurant",
        "name": "Plano Lounge"
      }
    },
    {
      "type": "node",
      "id": 5776803953,
      "lat": 11.1281094,
      "lon": 7.7068475,
      "tags": {
        "amenity": "restaurant",
        "cuisine": "african",
        "name": "Sayala Restaurant and Kebab Center",
        "phone": "07030408765"
      }
    },
    {
      "type": "node",
      "id": 5884050690,
      "lat": 13.0397592,
      "lon": 3.2061105,
      "tags": {
        "amenity": "restaurant",
        "description": "Restaurant Sénégalais",
        "name": "La Teranga"
      }
    },
    {
      "type": "node",
      "id": 5909851536,
      "lat": 11.1316632,
      "lon": 2.9259494,
      "tags": {
        "amenity": "restaurant",
        "name": "Bar maquis VIP 229"
      }
    },
    {
      "type": "node",
      "id": 5922051786,
      "lat": 12.9730239,
      "lon": 7.6216988,
      "tags": {
        "addr:street": "IBB Way",
        "amenity": "fast_food",
        "name": "Lady m"
      }
    },
    {
      "type": "node",
      "id": 5947986486,
      "lat": 12.9701526,
      "lon": 7.6195302,
      "tags": {
        "addr:street": "IBB Way",
        "amenity": "fast_food",
        "name": "Nwanyi Imo Restaurant"
      }
    },
    {
      "type": "node",
      "id": 6013989885,
      "lat": 9.084717,
      "lon": 7.4772564,
      "tags": {
        "amenity": "restaurant",
        "name": "JD Park"
      }
    },
    {
      "type": "node",
      "id": 6023248896,
      "lat": 9.048935,
      "lon": 7.5059823,
      "tags": {
        "amenity": "bar",
        "name": "Grilled fish from CI",
        "name:fr": "Poisson grillé"
      }
    },
    {
      "type": "node",
      "id": 6068305688,
      "lat": 9.0744619,
      "lon": 7.4749187,
      "tags": {
        "addr:street": "Adetokunbo Ademola Crescent",
        "amenity": "bar",
        "name": "Bature Brewery",
        "opening_hours": "Tu-Fr 17:00-23:00; Sa-Su 15:00-00:00",
        "website": "https://www.baturebrewery.com/"
      }
    },
    {
      "type": "node",
      "id": 6068313291,
      "lat": 9.0846933,
      "lon": 7.4777618,
      "tags": {
        "amenity": "restaurant",
        "cuisine": "african",
        "name": "Wazobia Restaurant and Bar"
      }
    },
    {
      "type": "node",
      "id": 6145372585,
      "lat": 11.0993926,
      "lon": 7.7174529,
      "tags": {
        "addr:street": "River road, pz",
        "amenity": "fast_food",
        "cuisine": "african",
        "name": "Apple White"
      }
    },
    {
      "type": "node",
      "id": 6181124287,
      "lat": 10.5058073,
      "lon": 7.4324104,
      "tags": {
        "addr:housenumber": "5",
        "addr:street": "Jema'a Road",
        "air_conditioning": "no",
        "amenity": "restaurant",
        "bar": "no",
        "capacity": "50",
        "cuisine": "african",
        "delivery": "no",
        "name": "Tawakalitu Restaurant",
        "opening_hours": "Mo-Su 09:00-21:00",
        "outdoor_seating": "no",
        "takeaway": "yes"
      }
    },
    {
      "type": "node",
      "id": 6226970887,
      "lat": 9.0854512,
      "lon": 7.471324,
      "tags": {
        "amenity": "bar",
        "name": "Famous potatoes"
      }
    },
    {
      "type": "node",
      "id": 6237969385,
      "lat": 9.0638973,
      "lon": 7.429248,
      "tags": {
        "amenity": "bar",
        "name": "The penthouse, kirmu plaza"
      }
    },
    {
      "type": "node",
      "id": 6524137485,
      "lat": 9.0988484,
      "lon": 7.4901994,
      "tags": {
        "amenity": "restaurant",
        "cuisine": "indian;lebanese",
        "name": "Cilantro"
      }
    },
    {
      "type": "node",
      "id": 6589985501,
      "lat": 9.1181087,
      "lon": 7.3949243,
      "tags": {
        "addr:city": "Gwarinpa",
        "addr:housenumber": "Plot 505B",
        "addr:street": "46 Crescent",
        "amenity": "cafe",
        "name": "NIBCARD Games Cafe"
      }
    },
    {
      "type": "node",
      "id": 6700203985,
      "lat": 9.0784748,
      "lon": 7.4789499,
      "tags": {
        "amenity": "restaurant",
        "name": "City Parc Bush Bar"
      }
    },
    {
      "type": "node",
      "id": 6767982685,
      "lat": 13.5020204,
      "lon": 7.1076839,
      "tags": {
        "amenity": "restaurant",
        "name": "Restaurant Sénégalais",
        "name:ar": "مطعم سنغالي"
      }
    },
    {
      "type": "node",
      "id": 6864045530,
      "lat": 9.0797218,
      "lon": 7.5004808,
      "tags": {
        "addr:city": "Abuja",
        "addr:housenumber": "31",
        "addr:postcode": "900271",
        "addr:street": "Gana Street",
        "air_conditioning": "yes",
        "amenity": "restaurant",
        "bar": "yes",
        "cuisine": "chinese;indian;regional;international;african;nigerian",
        "internet_access": "yes",
        "name": "Indigo Restaurant and Lounge",
        "opening_hours": "Mo-Su 10:00-02:00",
        "outdoor_seating": "yes",
        "phone": "+234 805 7755 755",
        "reservation": "yes",
        "website": "https://instagram.com/indigorestaurantabuja"
      }
    },
    {
      "type": "node",
      "id": 7365831287,
      "lat": 10.467843,
      "lon": 7.4316821,
      "tags": {
        "amenity": "fast_food",
        "brand": "Chicken Republic",
        "brand:wikidata": "Q23461416",
        "cuisine": "chicken",
        "name": "Chicken Republic",
        "takeaway": "yes"
      }
    },
    {
      "type": "node",
      "id": 7365831290,
      "lat": 10.4705508,
      "lon": 7.4332961,
      "tags": {
        "amenity": "fast_food",
        "name": "Rityz fast food"
      }
    },
    {
      "type": "node",
      "id": 7428702738,
      "lat": 10.505088,
      "lon": 7.4307806,
      "tags": {
        "addr:city": "Dadi Riba",
        "addr:street": "Muri Road",
        "amenity": "restaurant",
        "cuisine": "regional;international;african",
        "name": "West Point",
        "opening_hours": "Mo-Su 09:00-21:00"
      }
    },
    {
      "type": "node",
      "id": 7428702740,
      "lat": 10.503525,
      "lon": 7.4320653,
      "tags": {
        "addr:city": "Dadi Riba",
        "addr:street": "Constitution Road",
        "air_conditioning": "yes",
        "amenity": "fast_food",
        "brand": "Chicken Republic",
        "brand:wikidata": "Q23461416",
        "cuisine": "chicken",
        "delivery": "no",
        "name": "Chicken Republic",
        "opening_hours": "Mo-Su 08:00-22:00",
        "outdoor_seating": "no",
        "takeaway": "yes",
        "wheelchair": "limited"
      }
    },
    {
      "type": "node",
      "id": 7579230293,
      "lat": 9.9591219,
      "lon": 6.7692826,
      "tags": {
        "amenity": "cafe",
        "name": "Merry Cafe"
      }
    },
    {
      "type": "node",
      "id": 7674059918,
      "lat": 13.044529,
      "lon": 3.1812293,
      "tags": {
        "amenity": "restaurant",
        "name": "campus"
      }
    },
    {
      "type": "node",
      "id": 7680490069,
      "lat": 13.0573693,
      "lon": 3.2027453,
      "tags": {
        "amenity": "food_court",
        "name": "Teranga"
      }
    },
    {
      "type": "node",
      "id": 7682558285,
      "lat": 13.0560234,
      "lon": 3.2094906,
      "tags": {
        "addr:street": "STADE REGIONAL DE DOSSO",
        "amenity": "restaurant",
        "name": "Restaurant Stade"
      }
    },
    {
      "type": "node",
      "id": 7787945586,
      "lat": 13.0509793,
      "lon": 3.1884824,
      "tags": {
        "addr:street": "Arène de Lutte Salma Dan Rani de Dosso",
        "amenity": "restaurant",
        "internet_access": "wlan",
        "name": "Restaurant Daoula",
        "opening_hours": "24/7"
      }
    },
    {
      "type": "node",
      "id": 7791419790,
      "lat": 11.124917,
      "lon": 2.9287447,
      "tags": {
        "amenity": "cafe",
        "name": "KANDI BAVARIA"
      }
    },
    {
      "type": "node",
      "id": 7792526387,
      "lat": 13.0446944,
      "lon": 3.1975427,
      "tags": {
        "addr:housenumber": "+227 98050412",
        "addr:street": "ARNFD",
        "amenity": "restaurant",
        "internet_access": "wlan",
        "name": "Restaurant tchambou wasso",
        "opening_hours": "24/7"
      }
    },
    {
      "type": "node",
      "id": 8063795190,
      "lat": 9.1006927,
      "lon": 7.405861,
      "tags": {
        "amenity": "bar",
        "name": "Happy Jatau"
      }
    },
    {
      "type": "node",
      "id": 8196228179,
      "lat": 9.0551174,
      "lon": 7.38521,
      "tags": {
        "addr:city": "Abuja Nigeria",
        "addr:housenumber": "Shop 4",
        "addr:postcode": "900102",
        "addr:street": "Grace Court Estate, IDU Impresit, Karmo",
        "amenity": "restaurant",
        "cuisine": "pizza;regional;burger;sandwich;chicken;fish_and_chips;steak_house;seafood;international",
        "delivery": "yes",
        "diet:dairy_free": "yes",
        "diet:diabetes": "yes",
        "diet:egg_free": "yes",
        "diet:fruitarian": "yes",
        "diet:meat": "yes",
        "diet:sugar_free": "yes",
        "diet:vegetarian": "yes",
        "email": "Bitesandgrills@gmail.com",
        "internet_access": "wlan",
        "name": "Bites & Grills",
        "opening_hours": "Mo-Su 09:00-21:00",
        "outdoor_seating": "yes",
        "phone": "+234 81 728 924 07",
        "reservation": "yes",
        "takeaway": "yes"
      }
    },
    {
      "type": "node",
      "id": 8196228180,
      "lat": 9.0551401,
      "lon": 7.3855293,
      "tags": {
        "amenity": "restaurant",
        "name": "Bites & Grils"
      }
    },
    {
      "type": "node",
      "id": 8196228181,
      "lat": 9.0550856,
      "lon": 7.3852325,
      "tags": {
        "addr:city": "Abuja Nigeria",
        "addr:housenumber": "Shop 4",
        "addr:postcode": "900102",
        "addr:street": "Grace Court Estate, IDU Impresit, Karmo",
        "amenity": "fast_food",
        "cuisine": "pizza;burger;sandwich;fish_and_chips;steak_house;international;chicken",
        "delivery": "yes",
        "diet:dairy_free": "yes",
        "diet:diabetes": "yes",
        "diet:fruitarian": "yes",
        "diet:meat": "yes",
        "diet:sugar_free": "yes",
        "diet:vegetarian": "yes",
        "drive_through": "yes",
        "email": "Bitesandgrills@gmail.com",
        "internet_access": "wlan",
        "name": "Bites & Grills",
        "opening_hours": "Mo-Su 09:00-21:00",
        "operator": "Bites & Grills",
        "outdoor_seating": "yes",
        "payment:cash": "yes",
        "phone": "+234 81 728 924 07",
        "takeaway": "yes"
      }
    },
    {
      "type": "node",
      "id": 8323579141,
      "lat": 9.0746867,
      "lon": 7.475575,
      "tags": {
        "addr:city": "Abuja",
        "addr:housenumber": "215",
        "addr:street": "Adetokunbo Ademola Crescent",
        "amenity": "restaurant",
        "brand": "Johnny Rockets",
        "brand:wikidata": "Q1051593",
        "brand:wikipedia": "en:Johnny Rockets",
        "building": "yes",
        "cuisine": "burger",
        "name": "Johnny Rockets",
        "phone": "+234 703 883 3881"
      }
    },
    {
      "type": "node",
      "id": 8345910486,
      "lat": 9.0640349,
      "lon": 7.4586552,
      "tags": {
        "amenity": "restaurant",
        "level": "1",
        "name": "The Vue by Cilantro"
      }
    },
    {
      "type": "node",
      "id": 8357551963,
      "lat": 9.0841031,
      "lon": 7.5007175,
      "tags": {
        "amenity": "fast_food",
        "name": "The Salad Guru"
      }
    },
    {
      "type": "node",
      "id": 8367237917,
      "lat": 9.0553547,
      "lon": 7.4897983,
      "tags": {
        "amenity": "cafe",
        "name": "My Coffee"
      }
    },
    {
      "type": "node",
      "id": 8367587117,
      "lat": 9.0550803,
      "lon": 7.489942,
      "tags": {
        "amenity": "restaurant",
        "cuisine": "african",
        "name": "Nkoyo"
      }
    },
    {
      "type": "node",
      "id": 8367587318,
      "lat": 9.0554094,
      "lon": 7.4897123,
      "tags": {
        "amenity": "restaurant",
        "cuisine": "mexican",
        "name": "Nomis"
      }
    },
    {
      "type": "node",
      "id": 8425685218,
      "lat": 11.1224694,
      "lon": 2.9313247,
      "tags": {
        "amenity": "restaurant",
        "name": "Maquis sans prix"
      }
    },
    {
      "type": "node",
      "id": 8629329017,
      "lat": 9.0745393,
      "lon": 7.4749805,
      "tags": {
        "amenity": "restaurant",
        "cuisine": "chinese",
        "name": "Muzi Kitchen"
      }
    },
    {
      "type": "node",
      "id": 8830361417,
      "lat": 13.4887404,
      "lon": 7.109418,
      "tags": {
        "amenity": "restaurant",
        "name": "Restaurant BANGA FOOD Maradi"
      }
    },
    {
      "type": "node",
      "id": 8838238717,
      "lat": 13.4966967,
      "lon": 7.124413,
      "tags": {
        "amenity": "restaurant",
        "name": "Maradi Restaurant Los Tallos"
      }
    },
    {
      "type": "node",
      "id": 9229877615,
      "lat": 9.0669298,
      "lon": 7.491225,
      "tags": {
        "amenity": "restaurant",
        "name": "Nip N Nosh"
      }
    },
    {
      "type": "node",
      "id": 9230172696,
      "lat": 9.0663242,
      "lon": 7.4941306,
      "tags": {
        "amenity": "restaurant",
        "cuisine": "spanish;italian",
        "name": "La Taverna"
      }
    },
    {
      "type": "node",
      "id": 9310271563,
      "lat": 9.0580816,
      "lon": 7.4863947,
      "tags": {
        "amenity": "restaurant",
        "cuisine": "chinese",
        "name": "Silk Road"
      }
    },
    {
      "type": "node",
      "id": 9343979417,
      "lat": 11.8501782,
      "lon": 3.3928001,
      "tags": {
        "amenity": "restaurant",
        "cuisine": "local",
        "name": "Restaurant",
        "name:fr": "Restaurant Temple d'Or",
        "phone": "+22997771851"
      }
    },
    {
      "type": "node",
      "id": 9541785667,
      "lat": 9.0819819,
      "lon": 7.4697012,
      "tags": {
        "amenity": "food_court",
        "cuisine": "indian",
        "diet:vegetarian": "yes",
        "name": "Vmart food court"
      }
    },
    {
      "type": "node",
      "id": 9577867314,
      "lat": 9.0797545,
      "lon": 7.4807955,
      "tags": {
        "amenity": "restaurant",
        "name": "Grey Lounge"
      }
    },
    {
      "type": "node",
      "id": 9577867315,
      "lat": 9.0798428,
      "lon": 7.4807481,
      "tags": {
        "amenity": "restaurant",
        "name": "Today's Bukka"
      }
    },
    {
      "type": "node",
      "id": 9577919533,
      "lat": 9.0763655,
      "lon": 7.4771756,
      "tags": {
        "amenity": "restaurant",
        "name": "Beirut Lounge"
      }
    },
    {
      "type": "node",
      "id": 9648481173,
      "lat": 9.0377148,
      "lon": 7.4804293,
      "tags": {
        "addr:city": "Abuja",
        "addr:housenumber": "1",
        "addr:street": "Renao street",
        "amenity": "restaurant",
        "cuisine": "african_delicacies;chinese;regional",
        "name": "RENAO ABUJA",
        "opening_hours": "Mo-Su 11:00-23:00",
        "phone": "+2349065995603",
        "website": "https://renaoabuja.com"
      }
    },
    {
      "type": "node",
      "id": 9968158689,
      "lat": 9.0750583,
      "lon": 7.464046,
      "tags": {
        "amenity": "cafe",
        "name": "The Cube Café"
      }
    },
    {
      "type": "node",
      "id": 9968183938,
      "lat": 9.0697924,
      "lon": 7.4786601,
      "tags": {
        "addr:city": "Abuja",
        "addr:housenumber": "2",
        "addr:street": "Atakpame Street",
        "alt_name": "Galaxy Pizza Wuse 2",
        "amenity": "restaurant",
        "cuisine": "pizza",
        "name": "Galaxy Pizza",
        "phone": "+234 811 276 0422",
        "website": "https://galaxypizza.com.ng/"
      }
    },
    {
      "type": "node",
      "id": 10225142566,
      "lat": 9.1398809,
      "lon": 7.3819358,
      "tags": {
        "amenity": "bar",
        "name": "SDP  Snooker spot (kriz Lounge)"
      }
    },
    {
      "type": "node",
      "id": 10976924505,
      "lat": 10.5456299,
      "lon": 7.4503817,
      "tags": {
        "addr:street": "Isa Kaita Road",
        "amenity": "fast_food",
        "name": "Muffins & Brownies"
      }
    },
    {
      "type": "node",
      "id": 10992401494,
      "lat": 9.0793674,
      "lon": 7.4768429,
      "tags": {
        "addr:city": "abuja",
        "addr:housenumber": "55",
        "addr:postcode": "900288",
        "addr:street": "Kumasi Crescent",
        "air_conditioning": "yes",
        "amenity": "restaurant",
        "bar": "yes",
        "cuisine": "regional;burger;coffee_shop",
        "name": "TOPPFCT",
        "opening_hours": "24/7",
        "payment:cash": "yes",
        "payment:credit_cards": "yes",
        "phone": "+2348071419423"
      }
    },
    {
      "type": "node",
      "id": 11028868948,
      "lat": 9.6187466,
      "lon": 6.5465948,
      "tags": {
        "amenity": "fast_food",
        "name": "Chicken republic"
      }
    },
    {
      "type": "node",
      "id": 11049395905,
      "lat": 9.0762928,
      "lon": 7.4605633,
      "tags": {
        "amenity": "restaurant",
        "name": "Spice Platter"
      }
    },
    {
      "type": "node",
      "id": 11059564089,
      "lat": 13.5484037,
      "lon": 7.4501155,
      "tags": {
        "amenity": "restaurant",
        "name": "Restaurant Alforma"
      }
    },
    {
      "type": "node",
      "id": 11096835654,
      "lat": 13.4860116,
      "lon": 7.1141439,
      "tags": {
        "amenity": "restaurant",
        "name": "Restaurant Club 5 Étoiles"
      }
    },
    {
      "type": "node",
      "id": 11096841797,
      "lat": 13.4872076,
      "lon": 7.1193339,
      "tags": {
        "amenity": "restaurant",
        "name": "Restaurant Dan Komma"
      }
    },
    {
      "type": "node",
      "id": 11169503180,
      "lat": 9.0790837,
      "lon": 7.5004215,
      "tags": {
        "addr:city": "Abuja",
        "addr:housenumber": "33",
        "addr:postcode": "900271",
        "addr:street": "Gana Street",
        "air_conditioning": "yes",
        "amenity": "bar",
        "brewery": "yes",
        "min_age": "18",
        "name": "PURO",
        "opening_hours": "24/7",
        "phone": "0813 109 6966",
        "smoking": "yes"
      }
    },
    {
      "type": "node",
      "id": 11349518069,
      "lat": 11.1231749,
      "lon": 2.9258542,
      "tags": {
        "amenity": "bar",
        "name": "TABERA"
      }
    },
    {
      "type": "node",
      "id": 11379921885,
      "lat": 9.0692464,
      "lon": 7.4888043,
      "tags": {
        "addr:city": "Abuja",
        "addr:housenumber": "10",
        "addr:postcode": "900288",
        "addr:street": "Kolda Street",
        "air_conditioning": "yes",
        "amenity": "bar",
        "min_age": "18",
        "name": "SPEAKEASY_NG",
        "opening_hours": "thursday - SUNDAY"
      }
    },
    {
      "type": "node",
      "id": 11478728169,
      "lat": 9.0722345,
      "lon": 7.4667902,
      "tags": {
        "addr:housenumber": "7",
        "addr:street": "Lingu Crescent",
        "air_conditioning": "yes",
        "alt_name": "The Charcoal Grill Restaurant & Coffee Lounge",
        "amenity": "restaurant",
        "cuisine": "african;breakfast;burger;grill",
        "email": "thecharcoalgrill@hotmail.co.uk",
        "level": "1",
        "name": "The Charcoal Grill",
        "opening_hours": "Mo-Sa 08:00-23:00; Su 10:00-23:00",
        "phone": "+234 811 131 1177;+234 818 111 6161",
        "toilets:access": "customers",
        "website": "https://www.charcoalgrillabuja.com/"
      }
    },
    {
      "type": "node",
      "id": 11494714869,
      "lat": 9.0522785,
      "lon": 7.4758278,
      "tags": {
        "addr:street": "Olusegun Obasajo Way",
        "alt_name": "Kentucky Fried Chicken",
        "amenity": "fast_food",
        "brand": "KFC",
        "brand:website": "www.kfc.com",
        "brand:wikidata": "Q524757",
        "cuisine": "chicken",
        "name": "KFC",
        "takeaway": "yes"
      }
    },
    {
      "type": "node",
      "id": 11519115769,
      "lat": 9.0763109,
      "lon": 7.4870931,
      "tags": {
        "addr:street": "Adetokunbo Ademola Crescent",
        "amenity": "restaurant",
        "cuisine": "american;asian;burger;cake;chicken;chinese;coffee_shop",
        "name": "Morr Food",
        "opening_hours": "24/7",
        "phone": "07043800000"
      }
    },
    {
      "type": "node",
      "id": 11533207380,
      "lat": 9.0782726,
      "lon": 7.5005914,
      "tags": {
        "addr:city": "Abuja",
        "addr:housenumber": "39",
        "addr:postcode": "900271",
        "addr:street": "Gana Street",
        "air_conditioning": "yes",
        "amenity": "restaurant",
        "bar": "yes",
        "cuisine": "african_dishes",
        "delivery": "yes",
        "email": "bandgbygq@gmail.com",
        "name": "BULL AND GATE",
        "opening_hours": "Mo-Su 09:00-03:00",
        "phone": "+2348063394414",
        "reservation": "yes",
        "smoking": "separated",
        "website": "https://linktr.ee/bullandgate"
      }
    },
    {
      "type": "node",
      "id": 11580587586,
      "lat": 10.5481739,
      "lon": 7.4521665,
      "tags": {
        "addr:city": "Kaduna",
        "addr:housenumber": "37B Square",
        "addr:postcode": "800273",
        "addr:street": "Isa Kaita Road",
        "amenity": "cafe",
        "cuisine": "coffee_shop;burger;pizza;sandwich;kebab",
        "delivery": "yes",
        "internet_access": "wlan",
        "internet_access:fee": "customers",
        "name": "The Tea Place By JSEN Delights",
        "opening_hours": "24/7",
        "outdoor_seating": "yes",
        "phone": "+2349042698816",
        "website": "https://jsendelights.com"
      }
    },
    {
      "type": "node",
      "id": 11581828753,
      "lat": 9.0530584,
      "lon": 7.4793539,
      "tags": {
        "addr:city": "Abuja",
        "addr:street": "Mohammadu Buhari Way",
        "amenity": "restaurant",
        "cuisine": "sandwich;burger;african",
        "level": "1",
        "name": "Le Petit Square",
        "opening_hours": "Mo-Sa 08:30-20:30"
      }
    },
    {
      "type": "node",
      "id": 11780081758,
      "lat": 12.4379996,
      "lon": 4.2087388,
      "tags": {
        "addr:city": "Birnin kebbi",
        "addr:postcode": "860101",
        "addr:street": "Amina rabo plaza, Birnin kebbi",
        "amenity": "fast_food",
        "cuisine": "shawarma;crispy_chicken",
        "diet:halal": "yes",
        "diet:healthy": "yes",
        "diet:organic": "yes",
        "drive_through": "yes",
        "name": "DEELAD PLACE",
        "opening_hours": "24/7",
        "operator": "Deelad",
        "phone": "+234 818 216 8353"
      }
    },
    {
      "type": "node",
      "id": 11809703185,
      "lat": 9.0004052,
      "lon": 7.4727889,
      "tags": {
        "amenity": "restaurant",
        "level": "1",
        "name": "Kings Delicacy Restaurant"
      }
    },
    {
      "type": "node",
      "id": 11922113362,
      "lat": 9.0165838,
      "lon": 7.4105419,
      "tags": {
        "amenity": "fast_food",
        "brand": "Chicken Republic",
        "cuisine": "chicken",
        "level": "0",
        "name": "Chicken Republic",
        "takeaway": "yes"
      }
    },
    {
      "type": "node",
      "id": 11922113363,
      "lat": 9.0164081,
      "lon": 7.4106259,
      "tags": {
        "amenity": "restaurant",
        "brand": "Pizza Hut",
        "cuisine": "pizza",
        "level": "0",
        "name": "Pizza Hut",
        "opening_hours": "Mo-Th 10:00-22:00; Fr-Su 10:00-23:00; PH 09:30-12:00 open",
        "takeaway": "yes",
        "wheelchair": "no"
      }
    },
    {
      "type": "node",
      "id": 12177387877,
      "lat": 9.0708336,
      "lon": 7.4834267,
      "tags": {
        "addr:city": "Abuja",
        "addr:housenumber": "63",
        "addr:postcode": "900288",
        "addr:street": "Adetokunbo Ademola Crescent",
        "air_conditioning": "yes",
        "amenity": "restaurant",
        "bar": "yes",
        "cuisine": "african",
        "delivery": "yes",
        "email": "eneyesuccess@gmail.com",
        "name": "Bills Restaurant and Rooftop Lounge",
        "opening_hours": "24/7",
        "phone": "+2349038377630",
        "website": "https://billsrestaurant.africa.restaurant/"
      }
    },
    {
      "type": "node",
      "id": 12282370366,
      "lat": 11.9567342,
      "lon": 8.4730532,
      "tags": {
        "amenity": "cafe",
        "fac_pay": "yes",
        "name": "SAGAGEE COMMUNICATION LAYIN TSAMIYA",
        "operator": "private_individual",
        "pay_amount": "unknown",
        "source": "ideamaps_2024",
        "status": "functional",
        "use": "cafe",
        "users_PLWD": "yes",
        "users_boy": "yes",
        "users_female": "yes",
        "users_girl": "yes",
        "users_men": "yes"
      }
    },
    {
      "type": "node",
      "id": 12282370369,
      "lat": 11.9628596,
      "lon": 8.4732283,
      "tags": {
        "amenity": "cafe",
        "fac_pay": "no",
        "name": "BAKIN GANDU",
        "operator": "community",
        "source": "ideamaps_2024",
        "status": "functional",
        "use": "cafe",
        "users_PLWD": "yes",
        "users_boy": "yes",
        "users_female": "yes",
        "users_girl": "yes",
        "users_men": "yes"
      }
    },
    {
      "type": "node",
      "id": 12282451411,
      "lat": 11.9657651,
      "lon": 8.4779308,
      "tags": {
        "amenity": "restaurant",
        "fac_pay": "yes",
        "name": "AMINU JIBO MAI WAINA",
        "operator": "private_individual",
        "pay_amount": "100",
        "source": "ideamaps_2024",
        "status": "functional",
        "use": "eatery",
        "users_PLWD": "yes",
        "users_boy": "yes",
        "users_female": "yes",
        "users_girl": "yes",
        "users_men": "yes"
      }
    },
    {
      "type": "node",
      "id": 12391461556,
      "lat": 9.0724391,
      "lon": 7.4756151,
      "tags": {
        "addr:city": "Abuja",
        "addr:housenumber": "2",
        "addr:postcode": "900288",
        "addr:street": "sakono street",
        "air_conditioning": "yes",
        "amenity": "restaurant",
        "bar": "yes",
        "cuisine": "african",
        "email": "Checkpointabuja@gmail.com",
        "name": "Checkpoint Restaurant and Lounge",
        "opening_hours": "Mo-Su 12:00-02:00",
        "phone": "+2349165555055"
      }
    },
    {
      "type": "node",
      "id": 12467012300,
      "lat": 9.0806004,
      "lon": 7.4762028,
      "tags": {
        "addr:city": "Abuja",
        "addr:housenumber": "3",
        "addr:street": "Eldoret Close",
        "amenity": "restaurant",
        "bar": "yes",
        "cuisine": "regional;chicken;fish;african",
        "description": "Restaurant & Pool Bar",
        "name": "Breeze",
        "opening_hours": "Mo-Fr 12:00-24:00; Sa,Su 12:00-01:00",
        "outdoor_seating": "yes",
        "phone": "07047044915",
        "website": "https://www.instagram.com/breeze.abuja/"
      }
    },
    {
      "type": "node",
      "id": 12588281873,
      "lat": 9.0908963,
      "lon": 7.488831,
      "tags": {
        "amenity": "restaurant",
        "name": "Chopsticks"
      }
    },
    {
      "type": "node",
      "id": 12755619201,
      "lat": 9.1454395,
      "lon": 7.3441939,
      "tags": {
        "amenity": "restaurant",
        "cuisine": "african",
        "name": "IYABS PLACE",
        "opening_hours": "Mo-Sa 08:00-20:00"
      }
    },
    {
      "type": "node",
      "id": 12755620801,
      "lat": 9.1454492,
      "lon": 7.3441895,
      "tags": {
        "amenity": "restaurant",
        "name": "IYABS PLACE",
        "opening_hours": "Mo-Sa 09:00-21:00"
      }
    },
    {
      "type": "node",
      "id": 12776367223,
      "lat": 9.0689858,
      "lon": 7.4817273,
      "tags": {
        "addr:city": "ABUJA",
        "addr:housenumber": "2A",
        "addr:postcode": "900288",
        "addr:street": "Bouar Street, off Bangui Street.",
        "air_conditioning": "yes",
        "amenity": "bar",
        "email": "evrorestaurant2@gmail.com",
        "min_age": "18",
        "mobile": "+2348148400074",
        "name": "Evro Restaurant & Lounge",
        "opening_hours": "Mo-Su 08:00-05:00"
      }
    },
    {
      "type": "node",
      "id": 12984921096,
      "lat": 9.0770032,
      "lon": 7.4257395,
      "tags": {
        "amenity": "fast_food",
        "brand": "Domino's",
        "brand:wikidata": "Q839466",
        "cuisine": "pizza",
        "name": "Domino's",
        "takeaway": "yes"
      }
    },
    {
      "type": "node",
      "id": 12984921098,
      "lat": 9.0765654,
      "lon": 7.42527,
      "tags": {
        "alt_name": "Kentucky Fried Chicken",
        "amenity": "fast_food",
        "brand": "KFC",
        "brand:wikidata": "Q524757",
        "cuisine": "chicken",
        "name": "KFC",
        "takeaway": "yes"
      }
    },
    {
      "type": "node",
      "id": 12984986404,
      "lat": 9.0765919,
      "lon": 7.4254334,
      "tags": {
        "amenity": "fast_food",
        "brand": "Burger King",
        "brand:wikidata": "Q177054",
        "cuisine": "burger",
        "name": "Burger King",
        "takeaway": "yes"
      }
    },
    {
      "type": "node",
      "id": 13042245164,
      "lat": 10.6105151,
      "lon": 7.4446288,
      "tags": {
        "amenity": "restaurant",
        "name": "Bush Canteen"
      }
    },
    {
      "type": "way",
      "id": 176843653,
      "center": {
        "lat": 9.0814803,
        "lon": 7.4767345
      },
      "tags": {
        "amenity": "restaurant",
        "building": "yes",
        "cuisine": "indian",
        "name": "Wakkis",
        "source": "Bing"
      },
      "lat": 9.0814803,
      "lon": 7.4767345
    },
    {
      "type": "way",
      "id": 176919888,
      "center": {
        "lat": 9.0825547,
        "lon": 7.4671686
      },
      "tags": {
        "addr:housename": "Tantalizers",
        "addr:housenumber": "33",
        "addr:postcode": "900288",
        "addr:street": "Aminu Kano Crescent",
        "amenity": "fast_food",
        "building": "yes",
        "cuisine": "chicken",
        "name": "Tantilizers",
        "source": "Bing",
        "website": "https://tantalizersnig.com/"
      },
      "lat": 9.0825547,
      "lon": 7.4671686
    },
    {
      "type": "way",
      "id": 181653526,
      "center": {
        "lat": 9.0687152,
        "lon": 7.4815434
      },
      "tags": {
        "addr:housenumber": "494",
        "addr:street": "Bangui Street",
        "amenity": "restaurant",
        "building": "yes",
        "cuisine": "regional",
        "name": "Jevinik",
        "phone": "+2347015863699",
        "source": "Bing",
        "website": "https://www.jevinik.com/"
      },
      "lat": 9.0687152,
      "lon": 7.4815434
    },
    {
      "type": "way",
      "id": 219651175,
      "center": {
        "lat": 9.0654842,
        "lon": 7.4733322
      },
      "tags": {
        "addr:city": "Abuja",
        "addr:street": "Kampala Close",
        "alt_name": "City View Restaurant Wuse",
        "amenity": "restaurant",
        "building": "yes",
        "name": "City View Restaurant and Grill",
        "name:en": "City View Restaurant and Grill",
        "source": "Bing",
        "website": "http://cityviewrestaurantandgrill.com/"
      },
      "lat": 9.0654842,
      "lon": 7.4733322
    },
    {
      "type": "way",
      "id": 220545582,
      "center": {
        "lat": 9.0800824,
        "lon": 7.5000066
      },
      "tags": {
        "amenity": "fast_food",
        "building": "yes",
        "cuisine": "chicken",
        "name": "Southern Fried Chicken",
        "source": "Bing"
      },
      "lat": 9.0800824,
      "lon": 7.5000066
    },
    {
      "type": "way",
      "id": 299203358,
      "center": {
        "lat": 9.0755313,
        "lon": 7.4987076
      },
      "tags": {
        "amenity": "restaurant",
        "building": "yes",
        "name": "The Pasha"
      },
      "lat": 9.0755313,
      "lon": 7.4987076
    },
    {
      "type": "way",
      "id": 299451021,
      "center": {
        "lat": 9.1025969,
        "lon": 7.4791924
      },
      "tags": {
        "amenity": "cafe",
        "building": "yes",
        "cuisine": "coffee_shop",
        "name": "French Bakery"
      },
      "lat": 9.1025969,
      "lon": 7.4791924
    },
    {
      "type": "way",
      "id": 300348530,
      "center": {
        "lat": 9.0768883,
        "lon": 7.4614082
      },
      "tags": {
        "addr:city": "Abuja",
        "addr:housenumber": "5",
        "addr:street": "Bujumbura Street",
        "amenity": "cafe",
        "building": "yes",
        "cuisine": "international",
        "name": "Salamander"
      },
      "lat": 9.0768883,
      "lon": 7.4614082
    },
    {
      "type": "way",
      "id": 318385589,
      "center": {
        "lat": 13.0416151,
        "lon": 5.2311436
      },
      "tags": {
        "amenity": "restaurant",
        "building": "yes",
        "capacity": "50",
        "cuisine": "regional",
        "name": "Shanghai Bakers"
      },
      "lat": 13.0416151,
      "lon": 5.2311436
    },
    {
      "type": "way",
      "id": 318493293,
      "center": {
        "lat": 13.0598774,
        "lon": 5.2177782
      },
      "tags": {
        "addr:street": "Western by pass",
        "amenity": "restaurant",
        "building": "yes",
        "building:levels": "1",
        "capacity": "30",
        "cuisine": "regional",
        "diet:vegetarian": "yes",
        "name": "Sokoto Clinic Restaurant"
      },
      "lat": 13.0598774,
      "lon": 5.2177782
    },
    {
      "type": "way",
      "id": 424704775,
      "center": {
        "lat": 9.0811112,
        "lon": 7.4366791
      },
      "tags": {
        "amenity": "restaurant",
        "building": "yes",
        "name": "BluCabana"
      },
      "lat": 9.0811112,
      "lon": 7.4366791
    },
    {
      "type": "way",
      "id": 441256259,
      "center": {
        "lat": 12.9179701,
        "lon": 7.5857681
      },
      "tags": {
        "amenity": "restaurant",
        "building": "yes",
        "name": "Gidan Mantuwa"
      },
      "lat": 12.9179701,
      "lon": 7.5857681
    },
    {
      "type": "way",
      "id": 488835890,
      "center": {
        "lat": 10.5404394,
        "lon": 7.4307603
      },
      "tags": {
        "amenity": "restaurant",
        "cuisine": "chinese",
        "name": "Shagalinku"
      },
      "lat": 10.5404394,
      "lon": 7.4307603
    },
    {
      "type": "way",
      "id": 574072120,
      "center": {
        "lat": 9.5318224,
        "lon": 6.4428025
      },
      "tags": {
        "amenity": "cafe",
        "building": "yes",
        "name": "Coke Villa"
      },
      "lat": 9.5318224,
      "lon": 6.4428025
    },
    {
      "type": "way",
      "id": 574075971,
      "center": {
        "lat": 9.531011,
        "lon": 6.442859
      },
      "tags": {
        "amenity": "restaurant",
        "building": "yes",
        "cuisine": "moi-moi;rice;indomie;bread;eggs;tea",
        "generator:method": "motor_generator",
        "generator:source": "gas",
        "name": "King's Corner",
        "opening_hours": "24/7",
        "operator": "School"
      },
      "lat": 9.531011,
      "lon": 6.442859
    },
    {
      "type": "way",
      "id": 600994495,
      "center": {
        "lat": 9.6220869,
        "lon": 6.5454263
      },
      "tags": {
        "amenity": "restaurant",
        "building": "yes",
        "name": "TEE4 Resturant"
      },
      "lat": 9.6220869,
      "lon": 6.5454263
    },
    {
      "type": "way",
      "id": 743690568,
      "center": {
        "lat": 9.0792487,
        "lon": 7.477487
      },
      "tags": {
        "addr:city": "Abuja",
        "addr:housenumber": "49",
        "addr:street": "Kumasi Crescent",
        "alt_name": "L & N Kitchen",
        "amenity": "restaurant",
        "building": "commercial",
        "contact:phone": "+234 704 485 4619",
        "name": "L and N Kitchen",
        "website": "https://www.landnkitchen.com/"
      },
      "lat": 9.0792487,
      "lon": 7.477487
    },
    {
      "type": "way",
      "id": 776646793,
      "center": {
        "lat": 9.07379,
        "lon": 7.4755074
      },
      "tags": {
        "addr:city": "Abuja",
        "addr:housenumber": "1",
        "addr:street": "Adetokunbo Ademola Crescent",
        "alt_name": "Mandi Place & Restaurant",
        "amenity": "restaurant",
        "building": "yes",
        "name": "Mandi",
        "phone": "+234 905 555 1383",
        "roof:shape": "flat"
      },
      "lat": 9.07379,
      "lon": 7.4755074
    },
    {
      "type": "way",
      "id": 776646819,
      "center": {
        "lat": 9.0714475,
        "lon": 7.4778947
      },
      "tags": {
        "amenity": "fast_food",
        "brand": "Chicken Republic",
        "brand:wikidata": "Q23461416",
        "building": "yes",
        "cuisine": "chicken",
        "name": "Chicken Republic",
        "roof:shape": "gabled",
        "takeaway": "yes"
      },
      "lat": 9.0714475,
      "lon": 7.4778947
    },
    {
      "type": "way",
      "id": 778635334,
      "center": {
        "lat": 9.0666436,
        "lon": 7.490219
      },
      "tags": {
        "amenity": "restaurant",
        "building": "yes",
        "cuisine": "italian;pizza",
        "name": "Secret Garden",
        "roof:shape": "pyramidal"
      },
      "lat": 9.0666436,
      "lon": 7.490219
    },
    {
      "type": "way",
      "id": 808276650,
      "center": {
        "lat": 9.3087013,
        "lon": 7.2404046
      },
      "tags": {
        "amenity": "restaurant",
        "brand": "House of Blues",
        "brand:wikidata": "Q648898",
        "brand:wikipedia": "en:House of Blues",
        "building": "yes",
        "cuisine": "american",
        "name": "House bulw"
      },
      "lat": 9.3087013,
      "lon": 7.2404046
    },
    {
      "type": "way",
      "id": 808276651,
      "center": {
        "lat": 9.3090391,
        "lon": 7.2403983
      },
      "tags": {
        "amenity": "restaurant",
        "brand": "House of Blues",
        "brand:en": "American",
        "brand:wikidata": "Q648898",
        "brand:wikipedia": "en:House of Blues",
        "building": "house",
        "cuisine": "american",
        "name": "House of Blues"
      },
      "lat": 9.3090391,
      "lon": 7.2403983
    },
    {
      "type": "way",
      "id": 846756479,
      "center": {
        "lat": 10.5227585,
        "lon": 7.4332334
      },
      "tags": {
        "amenity": "restaurant",
        "building": "yes",
        "name": "Chicken Republic",
        "opening_hours:covid19": "off"
      },
      "lat": 10.5227585,
      "lon": 7.4332334
    },
    {
      "type": "way",
      "id": 881248855,
      "center": {
        "lat": 9.0551768,
        "lon": 7.3853675
      },
      "tags": {
        "addr:city": "Abuja Nigeria",
        "addr:housenumber": "Shop 4",
        "addr:postcode": "900102",
        "addr:street": "Grace Court Estate IDU Impresit, Karmo",
        "amenity": "restaurant",
        "building": "residential",
        "cuisine": "burger;pizza;chicken;sandwich;fish_and_chips;seafood;regional;chinese;steak_house",
        "delivery": "yes",
        "diet:dairy": "yes",
        "diet:dairy_free": "yes",
        "diet:egg_free": "yes",
        "diet:gluten_free": "yes",
        "diet:meat": "yes",
        "diet:vegetarian": "yes",
        "email": "Bitesandgrills@gmail.com",
        "internet_access": "wlan",
        "name": "Bites & Grills",
        "opening_hours": "Mo-Su 09:00-21:00",
        "outdoor_seating": "yes",
        "phone": "+234 81 728 924 07",
        "reservation": "yes",
        "takeaway": "yes"
      },
      "lat": 9.0551768,
      "lon": 7.3853675
    },
    {
      "type": "way",
      "id": 891293840,
      "center": {
        "lat": 9.0823283,
        "lon": 7.4664772
      },
      "tags": {
        "addr:housename": "DrumStix",
        "addr:housenumber": "32",
        "addr:postcode": "900288",
        "addr:street": "Aminu Kano Crescent",
        "alt_name": "Anti Ajobi",
        "amenity": "fast_food",
        "building": "commercial",
        "cuisine": "chicken",
        "name": "Drumstix",
        "website": "http://www.drumstixnigeria.com"
      },
      "lat": 9.0823283,
      "lon": 7.4664772
    },
    {
      "type": "way",
      "id": 893909959,
      "center": {
        "lat": 9.0542329,
        "lon": 7.5268879
      },
      "tags": {
        "amenity": "restaurant",
        "building": "yes",
        "name": "The Pavilion"
      },
      "lat": 9.0542329,
      "lon": 7.5268879
    },
    {
      "type": "way",
      "id": 894564085,
      "center": {
        "lat": 9.069527,
        "lon": 7.4246702
      },
      "tags": {
        "amenity": "restaurant",
        "building": "yes",
        "cuisine": "indian",
        "name": "Serendib"
      },
      "lat": 9.069527,
      "lon": 7.4246702
    },
    {
      "type": "way",
      "id": 899488907,
      "center": {
        "lat": 9.0844715,
        "lon": 7.5006976
      },
      "tags": {
        "amenity": "cafe",
        "building": "yes",
        "name": "The Cube Café",
        "website": "https://www.facebook.com/thecubeartcafe/"
      },
      "lat": 9.0844715,
      "lon": 7.5006976
    },
    {
      "type": "way",
      "id": 928070402,
      "center": {
        "lat": 11.9251886,
        "lon": 8.4626571
      },
      "tags": {
        "amenity": "restaurant",
        "brand": "House of Blues",
        "brand:wikidata": "Q648898",
        "brand:wikipedia": "en:House of Blues",
        "building": "yes",
        "cuisine": "american",
        "name": "House"
      },
      "lat": 11.9251886,
      "lon": 8.4626571
    },
    {
      "type": "way",
      "id": 995109343,
      "center": {
        "lat": 12.8248116,
        "lon": 7.6831103
      },
      "tags": {
        "amenity": "restaurant",
        "building": "yes",
        "name": "Cafe"
      },
      "lat": 12.8248116,
      "lon": 7.6831103
    },
    {
      "type": "way",
      "id": 999889096,
      "center": {
        "lat": 9.0657203,
        "lon": 7.4896383
      },
      "tags": {
        "amenity": "restaurant",
        "name": "The Junkyard Grill"
      },
      "lat": 9.0657203,
      "lon": 7.4896383
    },
    {
      "type": "way",
      "id": 999889100,
      "center": {
        "lat": 9.0622573,
        "lon": 7.4903697
      },
      "tags": {
        "amenity": "restaurant",
        "building": "yes",
        "name": "Grills 101"
      },
      "lat": 9.0622573,
      "lon": 7.4903697
    },
    {
      "type": "way",
      "id": 999889102,
      "center": {
        "lat": 9.0783427,
        "lon": 7.477692
      },
      "tags": {
        "amenity": "restaurant",
        "name": "Keje Grill"
      },
      "lat": 9.0783427,
      "lon": 7.477692
    },
    {
      "type": "way",
      "id": 999921007,
      "center": {
        "lat": 9.0845761,
        "lon": 7.4825522
      },
      "tags": {
        "amenity": "restaurant",
        "building": "yes",
        "cuisine": "thai",
        "name": "Siam City Garden"
      },
      "lat": 9.0845761,
      "lon": 7.4825522
    },
    {
      "type": "way",
      "id": 1085885753,
      "center": {
        "lat": 9.0904886,
        "lon": 7.4941615
      },
      "tags": {
        "amenity": "restaurant",
        "building": "yes",
        "cuisine": "steak_house;mexican;burger;italian",
        "name": "Cantina",
        "website": "https://cantinang.com/"
      },
      "lat": 9.0904886,
      "lon": 7.4941615
    },
    {
      "type": "way",
      "id": 1086236989,
      "center": {
        "lat": 9.0850293,
        "lon": 7.4894896
      },
      "tags": {
        "addr:city": "Abuja",
        "addr:housenumber": "2787",
        "addr:street": "Shehu Shagari Way",
        "amenity": "restaurant",
        "building": "yes",
        "cuisine": "lebanese;pizza;burger",
        "name": "New Yorker",
        "opening_hours": "24/7"
      },
      "lat": 9.0850293,
      "lon": 7.4894896
    },
    {
      "type": "way",
      "id": 1087447485,
      "center": {
        "lat": 9.0991003,
        "lon": 7.4827302
      },
      "tags": {
        "amenity": "cafe",
        "building": "yes",
        "name": "Café de Vie"
      },
      "lat": 9.0991003,
      "lon": 7.4827302
    },
    {
      "type": "way",
      "id": 1122738882,
      "center": {
        "lat": 9.0454066,
        "lon": 7.5014889
      },
      "tags": {
        "amenity": "restaurant",
        "building": "yes",
        "cuisine": "chicken;local_dishes",
        "diet:fish": "yes",
        "diet:halal": "yes",
        "diet:local": "yes",
        "diet:meat": "yes",
        "name": "Shagalinku"
      },
      "lat": 9.0454066,
      "lon": 7.5014889
    },
    {
      "type": "way",
      "id": 1125028499,
      "center": {
        "lat": 9.0274456,
        "lon": 7.5859737
      },
      "tags": {
        "amenity": "restaurant",
        "building": "yes",
        "name": "Ojueleba"
      },
      "lat": 9.0274456,
      "lon": 7.5859737
    },
    {
      "type": "way",
      "id": 1244583870,
      "center": {
        "lat": 9.1320724,
        "lon": 7.1896734
      },
      "tags": {
        "amenity": "cafe",
        "brand": "Coffee Time",
        "brand:wikidata": "Q5140932",
        "brand:wikipedia": "en:Coffee Time",
        "building": "yes",
        "cuisine": "coffee_shop",
        "name": "Coffee Time",
        "takeaway": "yes"
      },
      "lat": 9.1320724,
      "lon": 7.1896734
    },
    {
      "type": "way",
      "id": 1244954327,
      "center": {
        "lat": 10.509916,
        "lon": 7.433122
      },
      "tags": {
        "addr:street": "Daura Road",
        "amenity": "fast_food",
        "building": "yes",
        "cuisine": "coffee_shop",
        "name": "Saidu Mai Shayi",
        "source": "microsoft/BuildingFootprints"
      },
      "lat": 10.509916,
      "lon": 7.433122
    },
    {
      "type": "way",
      "id": 1245038563,
      "center": {
        "lat": 10.5445851,
        "lon": 7.4388582
      },
      "tags": {
        "addr:city": "Unguwar Shanu",
        "addr:street": "Ali Akilu Road",
        "amenity": "restaurant",
        "building": "yes",
        "capacity": "100",
        "cuisine": "pizza;chinese;coffee_shop;kebab;chicken;international;seafood",
        "name": "Midway Cafe",
        "opening_hours": "24/7",
        "outdoor_seating": "yes",
        "smoking": "outside",
        "source": "microsoft/BuildingFootprints",
        "takeaway": "yes"
      },
      "lat": 10.5445851,
      "lon": 7.4388582
    },
    {
      "type": "way",
      "id": 1245212659,
      "center": {
        "lat": 10.5136554,
        "lon": 7.4308015
      },
      "tags": {
        "addr:street": "Ahmadu Bello Way",
        "amenity": "fast_food",
        "building": "yes",
        "cuisine": "chicken",
        "name": "Disney Chicken",
        "source": "microsoft/BuildingFootprints"
      },
      "lat": 10.5136554,
      "lon": 7.4308015
    },
    {
      "type": "way",
      "id": 1245590348,
      "center": {
        "lat": 10.508213,
        "lon": 7.4335818
      },
      "tags": {
        "addr:city": "Kaduna North",
        "addr:housenumber": "AZ 33",
        "addr:postcode": "800211",
        "addr:street": "Maiduguri Road",
        "air_conditioning": "yes",
        "amenity": "fast_food",
        "building": "yes",
        "cuisine": "ice_cream;snack",
        "name": "Kaka Charee Ice Cream",
        "opening_hours": "Mo-Su 09:00-22:00",
        "operator": "Kaka Chari",
        "payment:bank_transfer": "yes",
        "payment:cash": "yes",
        "payment:credit_cards": "yes",
        "smoking": "no",
        "source": "microsoft/BuildingFootprints"
      },
      "lat": 10.508213,
      "lon": 7.4335818
    },
    {
      "type": "way",
      "id": 1274075736,
      "center": {
        "lat": 9.0324702,
        "lon": 7.4977458
      },
      "tags": {
        "amenity": "restaurant",
        "building": "yes",
        "cuisine": "regional",
        "name": "Biobak Kitchen"
      },
      "lat": 9.0324702,
      "lon": 7.4977458
    },
    {
      "type": "way",
      "id": 1327897356,
      "center": {
        "lat": 9.1212785,
        "lon": 7.382532
      },
      "tags": {
        "addr:city": "Gwarinpa Estate",
        "addr:housenumber": "19",
        "addr:postcode": "900108",
        "addr:street": "6th Avenue",
        "amenity": "restaurant",
        "building": "yes",
        "cuisine": "chicken;ice_cream;regional;african",
        "diet:chicken": "yes",
        "diet:dairy": "yes",
        "diet:healthy": "yes",
        "name": "Tastia",
        "phone": "+2349019979373"
      },
      "lat": 9.1212785,
      "lon": 7.382532
    },
    {
      "type": "way",
      "id": 1411437160,
      "center": {
        "lat": 9.0541332,
        "lon": 7.4608153
      },
      "tags": {
        "addr:street": "Bamako Street",
        "amenity": "restaurant",
        "building": "yes",
        "name": "Chester Fries"
      },
      "lat": 9.0541332,
      "lon": 7.4608153
    },
    {
      "type": "way",
      "id": 1411662859,
      "center": {
        "lat": 9.10351,
        "lon": 7.4046751
      },
      "tags": {
        "addr:street": "PA Michael Imoudu Avenue",
        "air_conditioning": "yes",
        "amenity": "fast_food",
        "brand": "Chicken Republic",
        "building": "yes",
        "cuisine": "chicken",
        "name": "Chicken Republic",
        "opening_hours": "Mo-Su 08:00-22:00",
        "takeaway": "yes",
        "toilets:access": "customers",
        "wheelchair": "yes"
      },
      "lat": 9.10351,
      "lon": 7.4046751
    },
    {
      "type": "node",
      "id": 1068916205,
      "lat": 5.9868961,
      "lon": 10.4348906,
      "tags": {
        "amenity": "bar",
        "name": "Zenith BAR"
      }
    },
    {
      "type": "node",
      "id": 1744082633,
      "lat": 5.9567146,
      "lon": 10.1512369,
      "tags": {
        "addr:street": "Commercial Avenue",
        "amenity": "cafe",
        "cuisine": "international",
        "name": "Prescafé",
        "wifi": "no"
      }
    },
    {
      "type": "node",
      "id": 1749650301,
      "lat": 5.956472,
      "lon": 10.1677246,
      "tags": {
        "amenity": "restaurant",
        "cuisine": "international",
        "name": "Bamenda Handicraft Cooperative Restaurant"
      }
    },
    {
      "type": "node",
      "id": 2135295593,
      "lat": 5.8944924,
      "lon": 14.5469938,
      "tags": {
        "amenity": "fast_food",
        "cuisine": "viande grillée brochette",
        "internet_access": "no",
        "name": "Tsanaga Soya"
      }
    },
    {
      "type": "node",
      "id": 2275945918,
      "lat": 5.1404676,
      "lon": 10.522333,
      "tags": {
        "amenity": "cafe",
        "ele": "1339",
        "name": "Coffie House"
      }
    },
    {
      "type": "node",
      "id": 2275945933,
      "lat": 5.14058,
      "lon": 10.522207,
      "tags": {
        "amenity": "restaurant",
        "ele": "1339",
        "name": "Night Market"
      }
    },
    {
      "type": "node",
      "id": 3116256089,
      "lat": 7.320801,
      "lon": 13.575443,
      "tags": {
        "amenity": "bar",
        "name": "Le Pentagone"
      }
    },
    {
      "type": "node",
      "id": 3116256094,
      "lat": 7.3194695,
      "lon": 13.5754853,
      "tags": {
        "amenity": "bar",
        "name": "Adamaoua Loisirs"
      }
    },
    {
      "type": "node",
      "id": 3637636915,
      "lat": 5.8897724,
      "lon": 14.547222,
      "tags": {
        "amenity": "fast_food",
        "cuisine": "viande_grillé",
        "name": "Soya"
      }
    },
    {
      "type": "node",
      "id": 3637650303,
      "lat": 5.8895682,
      "lon": 14.5474961,
      "tags": {
        "amenity": "restaurant",
        "name": "Le couscoucier"
      }
    },
    {
      "type": "node",
      "id": 3765195100,
      "lat": 5.452741,
      "lon": 10.0679159,
      "tags": {
        "addr:city": "Dschang",
        "amenity": "restaurant",
        "capacity": "50",
        "cuisine": "regional",
        "delivery": "no",
        "name": "Carestosa",
        "opening_hours": "Mo-Su 8:00-22:00",
        "smoking": "separated",
        "takeaway": "yes"
      }
    },
    {
      "type": "node",
      "id": 3804202972,
      "lat": 5.4729707,
      "lon": 10.2428248,
      "tags": {
        "amenity": "restaurant",
        "name": "La Paix"
      }
    },
    {
      "type": "node",
      "id": 4268289894,
      "lat": 4.7234451,
      "lon": 9.4843713,
      "tags": {
        "amenity": "bar",
        "name": "West End",
        "opening_hours": "Mo-Su 08:00-22:00"
      }
    },
    {
      "type": "node",
      "id": 4332287270,
      "lat": 5.4968013,
      "lon": 10.1569391,
      "tags": {
        "amenity": "restaurant",
        "name": "bn"
      }
    },
    {
      "type": "node",
      "id": 4351678091,
      "lat": 4.7554066,
      "lon": 9.4863421,
      "tags": {
        "addr:postcode": "00237",
        "addr:street": "Kumba-Mamfe",
        "amenity": "bar",
        "name": "Hilltop Bar Diongo"
      }
    },
    {
      "type": "node",
      "id": 4352748196,
      "lat": 4.7497503,
      "lon": 9.4860164,
      "tags": {
        "addr:street": "Kumba-Mamfe",
        "amenity": "bar",
        "cuisine": "african",
        "name": "Mary Land Complex",
        "opening_hours": "24/7"
      }
    },
    {
      "type": "node",
      "id": 4358976699,
      "lat": 4.8199292,
      "lon": 9.4608227,
      "tags": {
        "amenity": "bar",
        "name": "Ambos Complex"
      }
    },
    {
      "type": "node",
      "id": 4359109890,
      "lat": 4.7250501,
      "lon": 9.4837292,
      "tags": {
        "addr:street": "Obili Street",
        "amenity": "bar",
        "name": "BornHouse",
        "opening_hours": "Mo-Su 08:00-22:00"
      }
    },
    {
      "type": "node",
      "id": 4361258501,
      "lat": 5.3892323,
      "lon": 10.3318292,
      "tags": {
        "amenity": "bar",
        "name": "Le relais de Bamendjou"
      }
    },
    {
      "type": "node",
      "id": 4362447789,
      "lat": 5.4694705,
      "lon": 10.422325,
      "tags": {
        "amenity": "cafe",
        "name": "Cristal Coffee"
      }
    },
    {
      "type": "node",
      "id": 4368466195,
      "lat": 5.4474548,
      "lon": 10.0617593,
      "tags": {
        "amenity": "restaurant",
        "name": "Cantine de l'hôpital"
      }
    },
    {
      "type": "node",
      "id": 4387352997,
      "lat": 6.2459746,
      "lon": 10.4924419,
      "tags": {
        "amenity": "bar",
        "name": "mbessa bar",
        "name:en": "mbessa bar",
        "name:fr": "bar de mbessa"
      }
    },
    {
      "type": "node",
      "id": 4409603495,
      "lat": 5.8421667,
      "lon": 10.3998431,
      "tags": {
        "amenity": "bar",
        "name": "Samanta spot bar"
      }
    },
    {
      "type": "node",
      "id": 4409603500,
      "lat": 5.8424863,
      "lon": 10.4002981,
      "tags": {
        "amenity": "bar",
        "name": "Mboun Mboun Bar"
      }
    },
    {
      "type": "node",
      "id": 4409603502,
      "lat": 5.8427791,
      "lon": 10.4013183,
      "tags": {
        "amenity": "bar",
        "name": "Mapooh bar"
      }
    },
    {
      "type": "node",
      "id": 4409603504,
      "lat": 5.8432193,
      "lon": 10.4014712,
      "tags": {
        "amenity": "bar",
        "name": "Ndwenceng bar"
      }
    },
    {
      "type": "node",
      "id": 4409739148,
      "lat": 5.9933124,
      "lon": 10.439684,
      "tags": {
        "amenity": "bar",
        "name": "Lowcost Snack bar"
      }
    },
    {
      "type": "node",
      "id": 4451532019,
      "lat": 5.9631216,
      "lon": 10.1677697,
      "tags": {
        "amenity": "bar",
        "name": "Black & White Snack Bar"
      }
    },
    {
      "type": "node",
      "id": 4452128106,
      "lat": 5.5109643,
      "lon": 10.6379502,
      "tags": {
        "amenity": "bar",
        "name": "Dynamique Bar"
      }
    },
    {
      "type": "node",
      "id": 4455404449,
      "lat": 4.5748002,
      "lon": 13.6814124,
      "tags": {
        "amenity": "bar",
        "name": "Chez Barack Obama",
        "source": "mapillary"
      }
    },
    {
      "type": "node",
      "id": 4580826893,
      "lat": 5.9586915,
      "lon": 10.150987,
      "tags": {
        "amenity": "restaurant",
        "cuisine": "african;sandwich;breakfast;tea;local;coffee_shop;steak_house;chicken",
        "name": "New Century",
        "name:en": "New Century",
        "phone": "694669288"
      }
    },
    {
      "type": "node",
      "id": 4591092193,
      "lat": 4.7171538,
      "lon": 9.7224363,
      "tags": {
        "amenity": "bar",
        "name": "Le divino (loum)",
        "name:fr": "Le divino (loum)"
      }
    },
    {
      "type": "node",
      "id": 4591364393,
      "lat": 4.715902,
      "lon": 9.7222345,
      "tags": {
        "amenity": "bar",
        "name": "Rêve d'or (loum- carrefour sous manguier)",
        "name:fr": "Rêve d'or (loum- carrefour sous manguier)"
      }
    },
    {
      "type": "node",
      "id": 4591470198,
      "lat": 4.7215865,
      "lon": 9.7303348,
      "tags": {
        "amenity": "restaurant",
        "name": "Restaurant VIP",
        "name:fr": "Restaurant VIP"
      }
    },
    {
      "type": "node",
      "id": 4695442097,
      "lat": 6.3782319,
      "lon": 10.0784319,
      "tags": {
        "amenity": "restaurant",
        "name": "Killy Killi's Restaurant Menchum NWT CMR",
        "name:en": "Killy Killi's Restaurant Menchum NWT CMR"
      }
    },
    {
      "type": "node",
      "id": 4709686550,
      "lat": 5.4457362,
      "lon": 10.0611164,
      "tags": {
        "addr:city": "Dschang",
        "addr:street": "Ancienne CNPS",
        "amenity": "restaurant",
        "cuisine": "international;pizza;regional",
        "name": "Friends Club Gastro",
        "outdoor_seating": "yes",
        "phone": "+237 696 522 730"
      }
    },
    {
      "type": "node",
      "id": 4711571259,
      "lat": 4.8839604,
      "lon": 9.8943733,
      "tags": {
        "amenity": "cafe",
        "name": "Ngodi la Source"
      }
    },
    {
      "type": "node",
      "id": 4780946423,
      "lat": 5.9752633,
      "lon": 10.17766,
      "tags": {
        "addr:street": "Nkwen Street",
        "amenity": "restaurant",
        "cuisine": "african",
        "name": "Metropole Restaurant",
        "name:en": "Metropole Restaurant",
        "opening_hours": "Mo-Sa"
      }
    },
    {
      "type": "node",
      "id": 4809437925,
      "lat": 5.957205,
      "lon": 10.1338002,
      "tags": {
        "amenity": "cafe",
        "name": "My house Bamenda, Nitob 1",
        "name:fr": "My house Bamenda, Nitob 1"
      }
    },
    {
      "type": "node",
      "id": 4810543222,
      "lat": 6.0036238,
      "lon": 10.2556545,
      "tags": {
        "amenity": "bar",
        "name": "Pick Py Bar",
        "name:en": "Pick Py Bar"
      }
    },
    {
      "type": "node",
      "id": 4880159522,
      "lat": 5.4770933,
      "lon": 10.41591,
      "tags": {
        "addr:street": "2eme Rue TALOTEL",
        "amenity": "restaurant",
        "cuisine": "fine_dining",
        "name": "Groupe PASSION SARL",
        "name:fr": "Groupe PASSION SARL",
        "phone": "699282840",
        "website": "http://www.grouoepassion.cm"
      }
    },
    {
      "type": "node",
      "id": 4988940431,
      "lat": 6.3916162,
      "lon": 10.0802116,
      "tags": {
        "amenity": "bar",
        "name": "Pa John Bar",
        "name:en": "Pa John Bar"
      }
    },
    {
      "type": "node",
      "id": 5016359239,
      "lat": 7.326028,
      "lon": 13.5809824,
      "tags": {
        "amenity": "restaurant",
        "description": "poisson braisé sur le balcon d'une maison",
        "name": "Poisson braisé"
      }
    },
    {
      "type": "node",
      "id": 5126016934,
      "lat": 7.3382129,
      "lon": 13.5872758,
      "tags": {
        "amenity": "restaurant",
        "name": "Restaurant Riskou Ledimen"
      }
    },
    {
      "type": "node",
      "id": 5126630618,
      "lat": 7.2676825,
      "lon": 13.5518716,
      "tags": {
        "amenity": "restaurant",
        "name": "La parisienne"
      }
    },
    {
      "type": "node",
      "id": 5162037380,
      "lat": 7.322134,
      "lon": 13.5840395,
      "tags": {
        "amenity": "restaurant",
        "name": "La Gourmandise"
      }
    },
    {
      "type": "node",
      "id": 5377984269,
      "lat": 7.3118179,
      "lon": 13.5981354,
      "tags": {
        "amenity": "restaurant",
        "name": "Restaurant CIAEI",
        "opening_hours": "Mo-Su 06:30-22:00"
      }
    },
    {
      "type": "node",
      "id": 5409724008,
      "lat": 7.3273133,
      "lon": 13.590725,
      "tags": {
        "amenity": "fast_food",
        "cuisine": "regional",
        "description": "kilichi pimenté et non pimenté. a emporter ou consommer sur place. EU visited",
        "name": "Super kilichi, le meilleur",
        "phone": "+237675798892"
      }
    },
    {
      "type": "node",
      "id": 5420455922,
      "lat": 6.4671764,
      "lon": 12.6188424,
      "tags": {
        "amenity": "bar",
        "name": "le mirage"
      }
    },
    {
      "type": "node",
      "id": 5491227023,
      "lat": 6.4562495,
      "lon": 12.6207085,
      "tags": {
        "amenity": "restaurant",
        "name": "bar-restaurent chez Auguste"
      }
    },
    {
      "type": "node",
      "id": 5514318821,
      "lat": 5.9634366,
      "lon": 10.144201,
      "tags": {
        "addr:street": "Che Street",
        "amenity": "restaurant",
        "name": "Mother Care Cafe Restaurant"
      }
    },
    {
      "type": "node",
      "id": 5515734422,
      "lat": 5.9634216,
      "lon": 10.144065,
      "tags": {
        "addr:street": "Che Street",
        "amenity": "restaurant",
        "name": "Mother Care Cafe Restaurant"
      }
    },
    {
      "type": "node",
      "id": 5520435422,
      "lat": 4.6390588,
      "lon": 9.4492682,
      "tags": {
        "amenity": "bar",
        "name": "Danny Plaza"
      }
    },
    {
      "type": "node",
      "id": 5698742713,
      "lat": 7.4199275,
      "lon": 13.5389598,
      "tags": {
        "amenity": "restaurant",
        "name": "La cantine"
      }
    },
    {
      "type": "node",
      "id": 5713142612,
      "lat": 6.0128443,
      "lon": 10.2564845,
      "tags": {
        "amenity": "restaurant",
        "name": "Restaurant Universitaire"
      }
    },
    {
      "type": "node",
      "id": 5905150985,
      "lat": 4.576827,
      "lon": 13.6845699,
      "tags": {
        "amenity": "bar",
        "name": "Cabaret Le Krystal",
        "name:en": "Le Krystal Cabaret"
      }
    },
    {
      "type": "node",
      "id": 5916005197,
      "lat": 7.30575,
      "lon": 13.59042,
      "tags": {
        "amenity": "cafe",
        "name": "WALDE KOSSAM",
        "source": "ACAGER"
      }
    },
    {
      "type": "node",
      "id": 5916005198,
      "lat": 7.3269984,
      "lon": 13.5920333,
      "tags": {
        "amenity": "cafe",
        "contact:phone": "675774678",
        "name": "WALDE WOILARE",
        "source": "ACAGER"
      }
    },
    {
      "type": "node",
      "id": 5916005200,
      "lat": 7.3325,
      "lon": 13.5934,
      "tags": {
        "amenity": "cafe",
        "contact:phone": "670155277",
        "name": "Walde kosam NeidakouN",
        "source": "ACAGER"
      }
    },
    {
      "type": "node",
      "id": 5916005201,
      "lat": 7.3315783,
      "lon": 13.5873335,
      "tags": {
        "amenity": "cafe",
        "name": "WALDE WAMGAL",
        "source": "ACAGER"
      }
    },
    {
      "type": "node",
      "id": 5916005202,
      "lat": 7.3268219,
      "lon": 13.5904246,
      "tags": {
        "amenity": "cafe",
        "contact:phone": "674138529",
        "name": "WALDE KOSSAM",
        "place": "Mbibar",
        "source": "ACAGER"
      }
    },
    {
      "type": "node",
      "id": 5916005203,
      "lat": 7.326873,
      "lon": 13.585146,
      "tags": {
        "amenity": "cafe",
        "contact:phone": "699146492",
        "name": "WALDE KOSSAM",
        "source": "ACAGER"
      }
    },
    {
      "type": "node",
      "id": 5916005204,
      "lat": 7.293,
      "lon": 13.5761,
      "tags": {
        "amenity": "cafe",
        "contact:phone": "660467354",
        "name": "SARE KOSSAM",
        "source": "ACAGER"
      }
    },
    {
      "type": "node",
      "id": 5916005205,
      "lat": 7.298385,
      "lon": 13.577138,
      "tags": {
        "amenity": "cafe",
        "name": "WALDE KOSSAM BARKA",
        "source": "ACAGER"
      }
    },
    {
      "type": "node",
      "id": 5916005206,
      "lat": 7.299218,
      "lon": 13.577368,
      "tags": {
        "amenity": "cafe",
        "name": "NANA",
        "source": "ACAGER"
      }
    },
    {
      "type": "node",
      "id": 5916005208,
      "lat": 7.3195312,
      "lon": 13.5863509,
      "tags": {
        "amenity": "cafe",
        "name": "Kossam Camtel",
        "source": "ACAGER"
      }
    },
    {
      "type": "node",
      "id": 5916005209,
      "lat": 7.3208509,
      "lon": 13.5864438,
      "tags": {
        "amenity": "cafe",
        "contact:phone": "677213370",
        "name": "Walde Beero Kossam",
        "source": "ACAGER"
      }
    },
    {
      "type": "node",
      "id": 5916005210,
      "lat": 7.3201326,
      "lon": 13.5850891,
      "tags": {
        "amenity": "cafe",
        "contact:phone": "677596361",
        "name": "Walde Mbela",
        "source": "ACAGER"
      }
    },
    {
      "type": "node",
      "id": 5916005211,
      "lat": 7.32313,
      "lon": 13.5810591,
      "tags": {
        "amenity": "cafe",
        "fixme": "TONGO FALINGO",
        "name": "Soudou Kossam",
        "source": "ACAGER"
      }
    },
    {
      "type": "node",
      "id": 5916005212,
      "lat": 7.3202442,
      "lon": 13.5756439,
      "tags": {
        "amenity": "cafe",
        "contact:phone": "697338597",
        "fixme": "CENTRE COMMERCIAL",
        "name": "Bar Laitier",
        "source": "ACAGER"
      }
    },
    {
      "type": "node",
      "id": 5916005213,
      "lat": 7.303382,
      "lon": 13.600155,
      "tags": {
        "amenity": "cafe",
        "contact:phone": "678 80 17 89",
        "fixme": "BURKINA",
        "name": "WALDE KOSSAM",
        "source": "ACAGER"
      }
    },
    {
      "type": "node",
      "id": 5916005214,
      "lat": 7.302531,
      "lon": 13.600524,
      "tags": {
        "amenity": "cafe",
        "contact:phone": "678 29 99 83",
        "name": "WALDE KOSSAM",
        "source": "ACAGER"
      }
    },
    {
      "type": "node",
      "id": 5916005215,
      "lat": 7.294189,
      "lon": 13.574332,
      "tags": {
        "amenity": "cafe",
        "contact:phone": "677152548",
        "name": "WALDE SOUREDJI",
        "source": "ACAGER"
      }
    },
    {
      "type": "node",
      "id": 5916005216,
      "lat": 7.29405,
      "lon": 13.5722,
      "tags": {
        "amenity": "cafe",
        "name": "WALDE RISKOU",
        "source": "ACAGER"
      }
    },
    {
      "type": "node",
      "id": 5916005217,
      "lat": 7.291711,
      "lon": 13.5770836,
      "tags": {
        "amenity": "cafe",
        "name": "WALDE KOSSAM HALAL",
        "source": "ACAGER"
      }
    },
    {
      "type": "node",
      "id": 5916005218,
      "lat": 7.294179,
      "lon": 13.5762654,
      "tags": {
        "amenity": "cafe",
        "contact:phone": "690949411",
        "name": "SUPER KOSSAM",
        "source": "ACAGER"
      }
    },
    {
      "type": "node",
      "id": 5916005221,
      "lat": 7.3204601,
      "lon": 13.595217,
      "tags": {
        "amenity": "cafe",
        "name": "WALDE KOSSAM SA'ARE HARANDE",
        "source": "ACAGER"
      }
    },
    {
      "type": "node",
      "id": 5916005222,
      "lat": 7.3222306,
      "lon": 13.5950026,
      "tags": {
        "amenity": "cafe",
        "contact:phone": "699861080",
        "name": "GIC RISKOU LESDIME",
        "source": "ACAGER"
      }
    },
    {
      "type": "node",
      "id": 5916005224,
      "lat": 7.3196846,
      "lon": 13.5922121,
      "tags": {
        "amenity": "cafe",
        "contact:phone": "675408837",
        "name": "WALDE KOSSAM",
        "source": "ACAGER"
      }
    },
    {
      "type": "node",
      "id": 5916005225,
      "lat": 7.3194946,
      "lon": 13.5909559,
      "tags": {
        "amenity": "cafe",
        "name": "WALDE KOSSAM",
        "source": "ACAGER"
      }
    },
    {
      "type": "node",
      "id": 5916005226,
      "lat": 7.3189125,
      "lon": 13.5938478,
      "tags": {
        "amenity": "cafe",
        "name": "WALDE KOSSAM/RESTAURANT LE DELICE",
        "source": "ACAGER"
      }
    },
    {
      "type": "node",
      "id": 5916005228,
      "lat": 7.3228977,
      "lon": 13.5921555,
      "tags": {
        "amenity": "cafe",
        "name": "WALDE KOSSAM",
        "source": "ACAGER"
      }
    },
    {
      "type": "node",
      "id": 5916061542,
      "lat": 7.3212894,
      "lon": 13.5781341,
      "tags": {
        "amenity": "bar",
        "contact:phone": "699652384",
        "fixme": "CENTRE COMMERCIAL",
        "name": "VIEUX MANOIR",
        "source": "ACAGER"
      }
    },
    {
      "type": "node",
      "id": 5916061544,
      "lat": 7.309177,
      "lon": 13.603228,
      "tags": {
        "amenity": "bar",
        "name": "Natal bar",
        "source": "ACAGER"
      }
    },
    {
      "type": "node",
      "id": 5916061545,
      "lat": 7.3277,
      "lon": 13.6091,
      "tags": {
        "amenity": "bar",
        "contact:phone": "664817772",
        "name": "Cabaret wala wouro",
        "source": "ACAGER"
      }
    },
    {
      "type": "node",
      "id": 5916061546,
      "lat": 7.331909,
      "lon": 13.605979,
      "tags": {
        "amenity": "bar",
        "name": "Carrefour macabo bar",
        "source": "ACAGER"
      }
    },
    {
      "type": "node",
      "id": 5916061547,
      "lat": 7.294599,
      "lon": 13.573181,
      "tags": {
        "amenity": "bar",
        "contact:phone": "698599535",
        "name": "NEWS CAFE BAR",
        "source": "ACAGER"
      }
    },
    {
      "type": "node",
      "id": 5916061548,
      "lat": 7.294627,
      "lon": 13.573397,
      "tags": {
        "amenity": "bar",
        "contact:phone": "699338154",
        "name": "LA JOIE DE BAMYANGA",
        "source": "ACAGER"
      }
    },
    {
      "type": "node",
      "id": 5916061549,
      "lat": 7.2967,
      "lon": 13.5696,
      "tags": {
        "amenity": "bar",
        "contact:phone": "676128302",
        "name": "Horaire Baral",
        "source": "ACAGER"
      }
    },
    {
      "type": "node",
      "id": 5916061550,
      "lat": 7.2953,
      "lon": 13.5716,
      "tags": {
        "amenity": "bar",
        "contact:phone": "677102872",
        "name": "OLANCHA BAR",
        "source": "ACAGER"
      }
    },
    {
      "type": "node",
      "id": 5916061553,
      "lat": 7.3281344,
      "lon": 13.5834415,
      "tags": {
        "amenity": "bar",
        "contact:phone": "661007215",
        "name": "GOUNE FLORA",
        "source": "ACAGER"
      }
    },
    {
      "type": "node",
      "id": 5916061554,
      "lat": 7.3280801,
      "lon": 13.5833,
      "tags": {
        "amenity": "bar",
        "contact:phone": "650805056",
        "name": "KENFACK ROBERT",
        "source": "ACAGER"
      }
    },
    {
      "type": "node",
      "id": 5916061555,
      "lat": 7.3288809,
      "lon": 13.5848183,
      "tags": {
        "amenity": "bar",
        "contact:phone": "655940155",
        "name": "POKAM",
        "source": "ACAGER"
      }
    },
    {
      "type": "node",
      "id": 5916061566,
      "lat": 7.3266413,
      "lon": 13.5805889,
      "tags": {
        "amenity": "bar",
        "contact:phone": "665438286",
        "name": "Ze Emma",
        "source": "ACAGER"
      }
    },
    {
      "type": "node",
      "id": 5916061567,
      "lat": 7.3278443,
      "lon": 13.5816958,
      "tags": {
        "amenity": "bar",
        "contact:phone": "697261460",
        "name": "EDEN BAR",
        "source": "ACAGER"
      }
    },
    {
      "type": "node",
      "id": 5916061568,
      "lat": 7.3281293,
      "lon": 13.5828807,
      "tags": {
        "amenity": "bar",
        "contact:phone": "699051698",
        "name": "CONGO ZAIR BAR",
        "source": "ACAGER"
      }
    },
    {
      "type": "node",
      "id": 5916061569,
      "lat": 7.3281147,
      "lon": 13.582818,
      "tags": {
        "amenity": "bar",
        "contact:phone": "670267903",
        "name": "AVOCATIER",
        "source": "ACAGER"
      }
    },
    {
      "type": "node",
      "id": 5916061570,
      "lat": 7.3281057,
      "lon": 13.5827915,
      "tags": {
        "amenity": "bar",
        "contact:phone": "651735923",
        "name": "EMMERGENCE BAR",
        "source": "ACAGER"
      }
    },
    {
      "type": "node",
      "id": 5916061571,
      "lat": 7.3278699,
      "lon": 13.5816884,
      "tags": {
        "amenity": "bar",
        "name": "MANKOM BAR",
        "source": "ACAGER"
      }
    },
    {
      "type": "node",
      "id": 5916061572,
      "lat": 7.3282013,
      "lon": 13.5830653,
      "tags": {
        "amenity": "bar",
        "contact:phone": "660028549",
        "name": "BEAU SEJOUR BAR",
        "source": "ACAGER"
      }
    },
    {
      "type": "node",
      "id": 5916061573,
      "lat": 7.3282226,
      "lon": 13.5831135,
      "tags": {
        "amenity": "bar",
        "name": "YABASSI BAR",
        "source": "ACAGER"
      }
    },
    {
      "type": "node",
      "id": 5916061574,
      "lat": 7.3282468,
      "lon": 13.5832262,
      "tags": {
        "amenity": "bar",
        "contact:phone": "694787328",
        "name": "BEAUX LIEUX",
        "source": "ACAGER"
      }
    },
    {
      "type": "node",
      "id": 5916061575,
      "lat": 7.3282315,
      "lon": 13.58314,
      "tags": {
        "amenity": "bar",
        "contact:phone": "699419014",
        "name": "BEAU CLAIR BAR",
        "source": "ACAGER"
      }
    },
    {
      "type": "node",
      "id": 5916061576,
      "lat": 7.3246038,
      "lon": 13.579864,
      "tags": {
        "amenity": "bar",
        "contact:phone": "699145828",
        "fixme": "JOLI SOIR",
        "name": "CHZ LE CHEF BAR",
        "source": "ACAGER"
      }
    },
    {
      "type": "node",
      "id": 5916061577,
      "lat": 7.3245241,
      "lon": 13.5798694,
      "tags": {
        "amenity": "bar",
        "contact:phone": "682805905",
        "fixme": "JOLI SOIR",
        "name": "CHEZ L'HOMME",
        "source": "ACAGER"
      }
    },
    {
      "type": "node",
      "id": 5916061578,
      "lat": 7.328598,
      "lon": 13.582891,
      "tags": {
        "amenity": "bar",
        "contact:phone": "699565702",
        "name": "FRATERNITE BAR",
        "source": "ACAGER"
      }
    },
    {
      "type": "node",
      "id": 5916061579,
      "lat": 7.326428,
      "lon": 13.5820162,
      "tags": {
        "amenity": "bar",
        "contact:phone": "677261605",
        "name": "TOURISTIQUE BAR",
        "source": "ACAGER"
      }
    },
    {
      "type": "node",
      "id": 5916061581,
      "lat": 7.327797,
      "lon": 13.5820482,
      "tags": {
        "amenity": "bar",
        "contact:phone": "660154249",
        "name": "RESEAU BAR",
        "source": "ACAGER"
      }
    },
    {
      "type": "node",
      "id": 5916061582,
      "lat": 7.3269132,
      "lon": 13.5804447,
      "tags": {
        "amenity": "bar",
        "contact:phone": "696116402",
        "name": "AIR FORCE",
        "source": "ACAGER"
      }
    },
    {
      "type": "node",
      "id": 5916061583,
      "lat": 7.3268839,
      "lon": 13.5804313,
      "tags": {
        "amenity": "bar",
        "contact:phone": "675566457",
        "name": "BANA BAR",
        "source": "ACAGER"
      }
    },
    {
      "type": "node",
      "id": 5916061584,
      "lat": 7.3268572,
      "lon": 13.5804179,
      "tags": {
        "amenity": "bar",
        "contact:phone": "698353635",
        "name": "DESTIN BAR",
        "source": "ACAGER"
      }
    },
    {
      "type": "node",
      "id": 5916061585,
      "lat": 7.3277435,
      "lon": 13.5817592,
      "tags": {
        "amenity": "bar",
        "contact:phone": "696422537",
        "name": "AMOUR CLIMATIQUE",
        "source": "ACAGER"
      }
    },
    {
      "type": "node",
      "id": 5916061588,
      "lat": 7.3268296,
      "lon": 13.5804035,
      "tags": {
        "amenity": "bar",
        "contact:phone": "673679606",
        "name": "L'AMERICAIN",
        "source": "ACAGER"
      }
    },
    {
      "type": "node",
      "id": 5916061589,
      "lat": 7.3271046,
      "lon": 13.5800474,
      "tags": {
        "amenity": "bar",
        "contact:phone": "696685297",
        "name": "LA PAILLOT",
        "source": "ACAGER"
      }
    },
    {
      "type": "node",
      "id": 5916061590,
      "lat": 7.327115,
      "lon": 13.5800825,
      "tags": {
        "amenity": "bar",
        "contact:phone": "656882753",
        "name": "LE BIG LEVEL",
        "source": "ACAGER"
      }
    },
    {
      "type": "node",
      "id": 5916061591,
      "lat": 7.3245837,
      "lon": 13.5798653,
      "tags": {
        "amenity": "bar",
        "contact:phone": "677953433",
        "fixme": "BALADJI 1",
        "name": "NDOU NGA BAR",
        "source": "ACAGER"
      }
    },
    {
      "type": "node",
      "id": 5916061592,
      "lat": 7.323533,
      "lon": 13.579713,
      "tags": {
        "amenity": "bar",
        "contact:phone": "695222644",
        "fixme": "BALADJI 1",
        "name": "LE MANIBEN",
        "source": "ACAGER"
      }
    },
    {
      "type": "node",
      "id": 5916061593,
      "lat": 7.3322337,
      "lon": 13.57834,
      "tags": {
        "amenity": "bar",
        "contact:phone": "695161260",
        "name": "FIN GOUDRON BAR",
        "source": "ACAGER"
      }
    },
    {
      "type": "node",
      "id": 5916061594,
      "lat": 7.32588,
      "lon": 13.5812509,
      "tags": {
        "amenity": "bar",
        "contact:phone": "677820790",
        "fixme": "BALADJI 1",
        "name": "ACCADEMY BAR",
        "source": "ACAGER"
      }
    },
    {
      "type": "node",
      "id": 5916061597,
      "lat": 7.3257427,
      "lon": 13.5813528,
      "tags": {
        "amenity": "bar",
        "contact:phone": "694676622",
        "fixme": "BALADJI 1",
        "name": "COTE D'AZUR",
        "source": "ACAGER"
      }
    },
    {
      "type": "node",
      "id": 5916061598,
      "lat": 7.324556,
      "lon": 13.5798663,
      "tags": {
        "amenity": "bar",
        "fixme": "BALADJI 1",
        "name": "NEW LOOK",
        "source": "ACAGER"
      }
    },
    {
      "type": "node",
      "id": 5916061599,
      "lat": 7.3268097,
      "lon": 13.5898685,
      "tags": {
        "amenity": "bar",
        "contact:phone": "696260209",
        "name": "ODITA BAR",
        "source": "ACAGER"
      }
    },
    {
      "type": "node",
      "id": 5916061600,
      "lat": 7.3267831,
      "lon": 13.5897837,
      "tags": {
        "amenity": "bar",
        "name": "AMBASSADE BAR",
        "source": "ACAGER"
      }
    },
    {
      "type": "node",
      "id": 5916061601,
      "lat": 7.326879,
      "lon": 13.5898002,
      "tags": {
        "amenity": "bar",
        "name": "PETIT COIN",
        "source": "ACAGER"
      }
    },
    {
      "type": "node",
      "id": 5916061602,
      "lat": 7.3269415,
      "lon": 13.580459,
      "tags": {
        "amenity": "bar",
        "name": "NOBLESSE",
        "source": "ACAGER"
      }
    },
    {
      "type": "node",
      "id": 5916061619,
      "lat": 7.2976565,
      "lon": 13.5552217,
      "tags": {
        "amenity": "bar",
        "contact:phone": "679492408",
        "fixme": "BEKA",
        "name": "Mokam bar",
        "source": "ACAGER"
      }
    },
    {
      "type": "node",
      "id": 5916061620,
      "lat": 7.3092133,
      "lon": 13.5742091,
      "tags": {
        "amenity": "bar",
        "name": "Climat d'Afrique",
        "source": "ACAGER"
      }
    },
    {
      "type": "node",
      "id": 5916061622,
      "lat": 7.30534,
      "lon": 13.56971,
      "tags": {
        "amenity": "bar",
        "contact:phone": "678385668",
        "name": "MATAFAL BAR",
        "source": "ACAGER"
      }
    },
    {
      "type": "node",
      "id": 5916061623,
      "lat": 7.3060107,
      "lon": 13.5710343,
      "tags": {
        "amenity": "bar",
        "contact:phone": "698105878",
        "name": "BAKASSI BAR",
        "source": "ACAGER"
      }
    },
    {
      "type": "node",
      "id": 5916061624,
      "lat": 7.3159278,
      "lon": 13.5714562,
      "tags": {
        "amenity": "bar",
        "name": "PLANTATION BAR",
        "place": "BAMYANGA SITUBA",
        "source": "ACAGER"
      }
    },
    {
      "type": "node",
      "id": 5916061626,
      "lat": 7.3060767,
      "lon": 13.5716496,
      "tags": {
        "amenity": "bar",
        "contact:phone": "697094188",
        "name": "MONT BLANC BAR",
        "source": "ACAGER"
      }
    },
    {
      "type": "node",
      "id": 5916061627,
      "lat": 7.3111166,
      "lon": 13.5730714,
      "tags": {
        "amenity": "bar",
        "contact:phone": "698303521",
        "fixme": "SOCARET",
        "name": "ZIGORO BAR",
        "source": "ACAGER"
      }
    },
    {
      "type": "node",
      "id": 5916061628,
      "lat": 7.31958,
      "lon": 13.56655,
      "tags": {
        "amenity": "bar",
        "name": "CHAMPS ELYSEE BAR",
        "source": "ACAGER"
      }
    },
    {
      "type": "node",
      "id": 5916061629,
      "lat": 7.3184658,
      "lon": 13.5697861,
      "tags": {
        "amenity": "bar",
        "contact:phone": "698945351",
        "name": "GBINBIRO BAR",
        "source": "ACAGER"
      }
    },
    {
      "type": "node",
      "id": 5916061630,
      "lat": 7.3187967,
      "lon": 13.5709674,
      "tags": {
        "amenity": "bar",
        "contact:phone": "699644051",
        "name": "MONT NGAOUNDERE BAR",
        "source": "ACAGER"
      }
    },
    {
      "type": "node",
      "id": 5916061631,
      "lat": 7.3190365,
      "lon": 13.5736794,
      "tags": {
        "amenity": "bar",
        "name": "CONTAINER",
        "source": "ACAGER"
      }
    },
    {
      "type": "node",
      "id": 5916061632,
      "lat": 7.3187807,
      "lon": 13.5737428,
      "tags": {
        "amenity": "bar",
        "contact:phone": "698300641",
        "name": "Bar New Satellite",
        "source": "ACAGER"
      }
    },
    {
      "type": "node",
      "id": 5916061633,
      "lat": 7.319257,
      "lon": 13.5736534,
      "tags": {
        "amenity": "bar",
        "name": "ELEGANCE FASHION",
        "source": "ACAGER"
      }
    },
    {
      "type": "node",
      "id": 5916061634,
      "lat": 7.319455,
      "lon": 13.5735871,
      "tags": {
        "amenity": "bar",
        "contact:phone": "696311198",
        "fixme": "ONAREF",
        "name": "KRYSTAL",
        "source": "ACAGER"
      }
    },
    {
      "type": "node",
      "id": 5916061635,
      "lat": 7.3193309,
      "lon": 13.572909,
      "tags": {
        "amenity": "bar",
        "contact:phone": "69783634",
        "fixme": "ONAREF",
        "name": "LA COSA NOSTRA",
        "source": "ACAGER"
      }
    },
    {
      "type": "node",
      "id": 5916061636,
      "lat": 7.3119465,
      "lon": 13.5732348,
      "tags": {
        "amenity": "bar",
        "fixme": "ONAREF",
        "name": "COMPORTEMENT BAR",
        "source": "ACAGER"
      }
    },