{
  "schema": "s10_osm_mosques",
  "retrieval_date": "2026-04-22",
  "source": "OpenStreetMap Overpass API",
  "source_url": "https://overpass-api.de/api/interpreter",
  "query_bbox": "4.2,2.7,13.9,14.7 (Nigeria)",
  "count": 639,
  "elements": [
    {
      "type": "node",
      "id": 462364812,
      "lat": 10.5508119,
      "lon": 7.4455125,
      "tags": {
        "amenity": "place_of_worship",
        "name": "Sultan Bello Mosque",
        "religion": "muslim"
      }
    },
    {
      "type": "node",
      "id": 554794929,
      "lat": 10.5159725,
      "lon": 7.4298177,
      "tags": {
        "amenity": "place_of_worship",
        "name": "Kano Road Central Mosque",
        "religion": "muslim"
      }
    },
    {
      "type": "node",
      "id": 556987929,
      "lat": 10.6666527,
      "lon": 7.4837064,
      "tags": {
        "amenity": "place_of_worship",
        "name": "Travellers Mosque",
        "religion": "muslim"
      }
    },
    {
      "type": "node",
      "id": 602089972,
      "lat": 13.4728107,
      "lon": 7.1195973,
      "tags": {
        "addr:city": "Maradi",
        "amenity": "place_of_worship",
        "name": "Dan Issa Road Mosk",
        "religion": "muslim"
      }
    },
    {
      "type": "node",
      "id": 1754897261,
      "lat": 10.5105661,
      "lon": 7.4331164,
      "tags": {
        "amenity": "place_of_worship",
        "denomination": "sunni",
        "name": "Mosque (Audu Kwangila)",
        "religion": "muslim"
      }
    },
    {
      "type": "node",
      "id": 1880883954,
      "lat": 10.5056614,
      "lon": 7.4248588,
      "tags": {
        "addr:city": "Sardauna",
        "addr:street": "Sardauna Crescent",
        "air_conditioning": "yes",
        "amenity": "place_of_worship",
        "baby_feeding": "room",
        "denomination": "sunni",
        "name": "Salamatu Kabir Mosque",
        "religion": "muslim"
      }
    },
    {
      "type": "node",
      "id": 2570329825,
      "lat": 12.9932482,
      "lon": 7.6081902,
      "tags": {
        "amenity": "place_of_worship",
        "name": "Masallacin Kerau",
        "religion": "muslim"
      }
    },
    {
      "type": "node",
      "id": 3224559765,
      "lat": 13.0331763,
      "lon": 3.210551,
      "tags": {
        "amenity": "place_of_worship",
        "name": "Mosquet",
        "religion": "muslim"
      }
    },
    {
      "type": "node",
      "id": 3224559766,
      "lat": 13.0340529,
      "lon": 3.2106382,
      "tags": {
        "amenity": "place_of_worship",
        "name": "Mosquet",
        "religion": "muslim"
      }
    },
    {
      "type": "node",
      "id": 3633925915,
      "lat": 11.9703505,
      "lon": 8.4333025,
      "tags": {
        "amenity": "place_of_worship",
        "name": "BUK CENTRAL MOSQUE",
        "religion": "muslim"
      }
    },
    {
      "type": "node",
      "id": 3748969107,
      "lat": 13.0000719,
      "lon": 7.6291447,
      "tags": {
        "addr:city": "Katsina",
        "amenity": "place_of_worship",
        "name": "Kumassi Mosque",
        "religion": "muslim",
        "source": "Bing"
      }
    },
    {
      "type": "node",
      "id": 3748972615,
      "lat": 13.0100826,
      "lon": 7.6423433,
      "tags": {
        "addr:city": "Katsina",
        "amenity": "place_of_worship",
        "name": "Modoji Central Mosque",
        "religion": "muslim",
        "source": "Bing"
      }
    },
    {
      "type": "node",
      "id": 4701329422,
      "lat": 13.0702894,
      "lon": 5.2004793,
      "tags": {
        "addr:city": "Tudun Sunna",
        "addr:housenumber": "11",
        "addr:street": "Opp Girabshi Road",
        "amenity": "place_of_worship",
        "denomination": "sunni",
        "email": "madarasatulnanaaisha@gmail.com",
        "name": "Masallacin Nana Aisha",
        "religion": "muslim"
      }
    },
    {
      "type": "node",
      "id": 4756009176,
      "lat": 11.1091312,
      "lon": 7.7325659,
      "tags": {
        "amenity": "place_of_worship",
        "name": "Masjid Ansarudeen Islamiyya",
        "name:ar": "مسجد أنصار الدين الإسلامي",
        "religion": "muslim"
      }
    },
    {
      "type": "node",
      "id": 4766970156,
      "lat": 11.153691,
      "lon": 7.6567587,
      "tags": {
        "addr:city": "Samaru",
        "addr:street": "Ahmadu Bello Campus",
        "amenity": "place_of_worship",
        "denomination": "sunni",
        "name": "Central Mosque",
        "religion": "muslim"
      }
    },
    {
      "type": "node",
      "id": 4912656913,
      "lat": 10.5304281,
      "lon": 7.4404025,
      "tags": {
        "amenity": "place_of_worship",
        "name": "Waff Road Mosque",
        "religion": "muslim"
      }
    },
    {
      "type": "node",
      "id": 4912868605,
      "lat": 10.5410991,
      "lon": 7.4640814,
      "tags": {
        "amenity": "place_of_worship",
        "name": "Yahaya Road Mosque",
        "religion": "muslim"
      }
    },
    {
      "type": "node",
      "id": 5225276114,
      "lat": 13.179258,
      "lon": 2.7204637,
      "tags": {
        "addr:city": "Madina",
        "addr:district": "N'Gonga",
        "addr:place": "Madina",
        "amenity": "place_of_worship",
        "name": "Mosquee",
        "religion": "muslim",
        "source": "WNA Hub - Ruwa Niger Project"
      }
    },
    {
      "type": "node",
      "id": 5909851537,
      "lat": 11.1328948,
      "lon": 2.9334501,
      "tags": {
        "amenity": "place_of_worship",
        "name": "Fondation GHARS",
        "religion": "muslim"
      }
    },
    {
      "type": "node",
      "id": 7238538874,
      "lat": 10.995634,
      "lon": 8.1010069,
      "tags": {
        "amenity": "place_of_worship",
        "name": "Jumma'at Mosque",
        "religion": "muslim"
      }
    },
    {
      "type": "node",
      "id": 7624013451,
      "lat": 13.7485413,
      "lon": 7.9874336,
      "tags": {
        "amenity": "place_of_worship",
        "name": "Grande mosqée",
        "religion": "muslim"
      }
    },
    {
      "type": "node",
      "id": 7674025779,
      "lat": 13.0442236,
      "lon": 3.1815304,
      "tags": {
        "amenity": "place_of_worship",
        "name": "cAMPUS",
        "religion": "muslim"
      }
    },
    {
      "type": "node",
      "id": 9170229710,
      "lat": 13.5624508,
      "lon": 6.3257285,
      "tags": {
        "amenity": "place_of_worship",
        "name": "Magagindoke Mosque",
        "religion": "muslim"
      }
    },
    {
      "type": "node",
      "id": 9170239337,
      "lat": 13.5506592,
      "lon": 6.3193974,
      "tags": {
        "amenity": "place_of_worship",
        "name": "Abdulfatah Juma'at mosque",
        "religion": "muslim"
      }
    },
    {
      "type": "node",
      "id": 9464135694,
      "lat": 13.2049874,
      "lon": 2.7070131,
      "tags": {
        "addr:city": "Dar Es Salam Koira Tegui",
        "addr:district": "N'Gonga",
        "addr:place": "Dar Es Salam Koira Tegui",
        "amenity": "place_of_worship",
        "name": "Mosquee",
        "religion": "muslim",
        "source": "WNA Hub - Ruwa Niger Project"
      }
    },
    {
      "type": "node",
      "id": 9612568773,
      "lat": 9.9012169,
      "lon": 2.9539614,
      "tags": {
        "amenity": "place_of_worship",
        "name": "Modquée",
        "religion": "muslim"
      }
    },
    {
      "type": "node",
      "id": 9644363033,
      "lat": 12.5059572,
      "lon": 4.644844,
      "tags": {
        "amenity": "place_of_worship",
        "name": "Mosque",
        "religion": "muslim"
      }
    },
    {
      "type": "node",
      "id": 9994483884,
      "lat": 13.6590802,
      "lon": 6.702792,
      "tags": {
        "amenity": "place_of_worship",
        "name": "GRANDE MOSQUEE DU VENDREDI",
        "religion": "muslim"
      }
    },
    {
      "type": "node",
      "id": 10097916578,
      "lat": 13.2004731,
      "lon": 2.7093623,
      "tags": {
        "addr:city": "Dar Es Salam Koira Zeno",
        "addr:district": "N'Gonga",
        "addr:place": "Dar Es Salam Koira Zeno",
        "amenity": "place_of_worship",
        "name": "Grande Mosquee Dar Es Salam",
        "religion": "muslim",
        "source": "WNA Hub - Ruwa Niger Project"
      }
    },
    {
      "type": "node",
      "id": 10720292506,
      "lat": 13.2195781,
      "lon": 2.7286867,
      "tags": {
        "addr:city": "Tomboga",
        "addr:district": "N'Gonga",
        "addr:place": "Tomboga",
        "amenity": "place_of_worship",
        "name": "Mosquee",
        "religion": "muslim",
        "source": "WNA Hub - Ruwa Niger Project"
      }
    },
    {
      "type": "node",
      "id": 10720292508,
      "lat": 13.178742,
      "lon": 2.827494,
      "tags": {
        "addr:city": "N'Gonga Zarma",
        "addr:district": "N'Gonga",
        "addr:place": "N'Gonga Zarma",
        "amenity": "place_of_worship",
        "name": "Daba Banda Guingara",
        "religion": "muslim",
        "source": "WNA Hub - Ruwa Niger Project"
      }
    },
    {
      "type": "node",
      "id": 10720292509,
      "lat": 13.210008,
      "lon": 2.8286789,
      "tags": {
        "addr:city": "Boula Korgui",
        "addr:district": "N'Gonga",
        "addr:place": "Boula Korgui",
        "amenity": "place_of_worship",
        "name": "Mosquee",
        "religion": "muslim",
        "source": "WNA Hub - Ruwa Niger Project"
      }
    },
    {
      "type": "node",
      "id": 10720292510,
      "lat": 13.1716814,
      "lon": 2.9090741,
      "tags": {
        "addr:city": "Kohinza",
        "addr:district": "N'Gonga",
        "addr:place": "Kohinza Kaina",
        "amenity": "place_of_worship",
        "name": "Mosquee",
        "religion": "muslim",
        "source": "WNA Hub - Ruwa Niger Project"
      }
    },
    {
      "type": "node",
      "id": 10720292511,
      "lat": 13.1870656,
      "lon": 2.8786689,
      "tags": {
        "addr:city": "Tinoma",
        "addr:district": "N'Gonga",
        "addr:place": "Tinoma",
        "amenity": "place_of_worship",
        "name": "Mosquee Principale",
        "religion": "muslim",
        "source": "WNA Hub - Ruwa Niger Project"
      }
    },
    {
      "type": "node",
      "id": 10720292513,
      "lat": 13.1792995,
      "lon": 2.8267401,
      "tags": {
        "addr:city": "N'Gonga Zarma",
        "addr:district": "N'Gonga",
        "addr:place": "N'Gonga Zarma",
        "amenity": "place_of_worship",
        "name": "Gorora Guingarey",
        "religion": "muslim",
        "source": "WNA Hub - Ruwa Niger Project"
      }
    },
    {
      "type": "node",
      "id": 10720292514,
      "lat": 13.2096749,
      "lon": 2.8272797,
      "tags": {
        "addr:city": "Boula Korgui",
        "addr:district": "N'Gonga",
        "addr:place": "Boula Korgui",
        "amenity": "place_of_worship",
        "name": "Mosquee",
        "religion": "muslim",
        "source": "WNA Hub - Ruwa Niger Project"
      }
    },
    {
      "type": "node",
      "id": 10720292515,
      "lat": 13.2044532,
      "lon": 2.939395,
      "tags": {
        "addr:city": "Kalla Pathé",
        "addr:district": "N'Gonga",
        "addr:place": "Kalla Pathé",
        "amenity": "place_of_worship",
        "name": "Jingarey Kalla Pathé",
        "religion": "muslim",
        "source": "WNA Hub - Ruwa Niger Project"
      }
    },
    {
      "type": "node",
      "id": 10720292517,
      "lat": 13.1430232,
      "lon": 2.7401599,
      "tags": {
        "addr:city": "Diawando",
        "addr:district": "N'Gonga",
        "addr:place": "Diawando 1",
        "amenity": "place_of_worship",
        "name": "Mosquee",
        "religion": "muslim",
        "source": "WNA Hub - Ruwa Niger Project"
      }
    },
    {
      "type": "node",
      "id": 10720292518,
      "lat": 13.1702285,
      "lon": 2.9052928,
      "tags": {
        "addr:city": "Labi Tounga",
        "addr:district": "N'Gonga",
        "addr:place": "Labi Tounga",
        "amenity": "place_of_worship",
        "name": "Mosquee de Labi Tounga",
        "religion": "muslim",
        "source": "WNA Hub - Ruwa Niger Project"
      }
    },
    {
      "type": "node",
      "id": 10720292519,
      "lat": 13.1220364,
      "lon": 2.8507251,
      "tags": {
        "addr:city": "Guillare Peulh",
        "addr:district": "N'Gonga",
        "addr:place": "Guillare Peulh",
        "amenity": "place_of_worship",
        "name": "Mosquee",
        "religion": "muslim",
        "source": "WNA Hub - Ruwa Niger Project"
      }
    },
    {
      "type": "node",
      "id": 10720292520,
      "lat": 13.1463983,
      "lon": 2.8340923,
      "tags": {
        "addr:city": "Nioumay",
        "addr:district": "N'Gonga",
        "addr:place": "Nioumay Kagourou Ganda",
        "amenity": "place_of_worship",
        "name": "Mosquee",
        "religion": "muslim",
        "source": "WNA Hub - Ruwa Niger Project"
      }
    },
    {
      "type": "node",
      "id": 10720292521,
      "lat": 13.203096,
      "lon": 2.7065264,
      "tags": {
        "addr:city": "Dar Es Salam Mali",
        "addr:district": "N'Gonga",
        "addr:place": "Dar Es Salam Mali",
        "amenity": "place_of_worship",
        "fixme": "cannot be completed;HR imagery missing",
        "name": "Mosquee",
        "religion": "muslim",
        "source": "WNA Hub - Ruwa Niger Project"
      }
    },
    {
      "type": "node",
      "id": 10720292523,
      "lat": 13.1411614,
      "lon": 2.8476678,
      "tags": {
        "addr:city": "Nioumay",
        "addr:district": "N'Gonga",
        "addr:place": "Nioumay Kagourou Peulh",
        "amenity": "place_of_worship",
        "name": "Mosquee",
        "religion": "muslim",
        "source": "WNA Hub - Ruwa Niger Project"
      }
    },
    {
      "type": "node",
      "id": 10720292524,
      "lat": 13.2088333,
      "lon": 2.7817055,
      "tags": {
        "addr:city": "Doulouwel Peulh",
        "addr:district": "N'Gonga",
        "addr:place": "Doulouwel Peulh",
        "amenity": "place_of_worship",
        "name": "Mosquee",
        "religion": "muslim",
        "source": "WNA Hub - Ruwa Niger Project"
      }
    },
    {
      "type": "node",
      "id": 10720292525,
      "lat": 13.2222098,
      "lon": 2.9114535,
      "tags": {
        "addr:city": "Louloudje Zarma",
        "addr:district": "N'Gonga",
        "addr:place": "Gandji Aro Koira",
        "amenity": "place_of_worship",
        "name": "Louloudje Juingara",
        "religion": "muslim",
        "source": "WNA Hub - Ruwa Niger Project"
      }
    },
    {
      "type": "node",
      "id": 10720292526,
      "lat": 13.2473301,
      "lon": 2.7634311,
      "tags": {
        "addr:city": "Kannare",
        "addr:district": "N'Gonga",
        "addr:place": "Kannare",
        "amenity": "place_of_worship",
        "name": "Mosquee",
        "religion": "muslim",
        "source": "WNA Hub - Ruwa Niger Project"
      }
    },
    {
      "type": "node",
      "id": 10720292527,
      "lat": 13.1627495,
      "lon": 2.837494,
      "tags": {
        "addr:city": "N'Gonga Peulh",
        "addr:district": "N'Gonga",
        "addr:place": "Bellare",
        "amenity": "place_of_worship",
        "name": "Mosquee Ballarey",
        "religion": "muslim",
        "source": "WNA Hub - Ruwa Niger Project"
      }
    },
    {
      "type": "node",
      "id": 10720292528,
      "lat": 13.1709366,
      "lon": 2.8657529,
      "tags": {
        "addr:city": "Barbe Peulh",
        "addr:district": "N'Gonga",
        "addr:place": "Barbe Sire",
        "amenity": "place_of_worship",
        "name": "Mosquee",
        "religion": "muslim",
        "source": "WNA Hub - Ruwa Niger Project"
      }
    },
    {
      "type": "node",
      "id": 10720292530,
      "lat": 13.2259761,
      "lon": 2.8968093,
      "tags": {
        "addr:city": "Garoubeye",
        "addr:district": "N'Gonga",
        "addr:place": "Garoubeye",
        "amenity": "place_of_worship",
        "name": "Petite Mosquee",
        "religion": "muslim",
        "source": "WNA Hub - Ruwa Niger Project"
      }
    },
    {
      "type": "node",
      "id": 10720292532,
      "lat": 13.2007088,
      "lon": 2.9111594,
      "tags": {
        "addr:city": "Alzanna Fandou",
        "addr:district": "N'Gonga",
        "addr:place": "Alzanna Fandou",
        "amenity": "place_of_worship",
        "name": "Grande Mosquee",
        "religion": "muslim",
        "source": "WNA Hub - Ruwa Niger Project"
      }
    },
    {
      "type": "node",
      "id": 10720292533,
      "lat": 13.191153,
      "lon": 2.8786821,
      "tags": {
        "addr:city": "Tinoma",
        "addr:district": "N'Gonga",
        "addr:place": "Tinoma",
        "amenity": "place_of_worship",
        "name": "Mosquee Gawo Taweye",
        "religion": "muslim",
        "source": "WNA Hub - Ruwa Niger Project"
      }
    },
    {
      "type": "node",
      "id": 10720292535,
      "lat": 13.1766994,
      "lon": 2.8278374,
      "tags": {
        "addr:city": "N'Gonga Zarma",
        "addr:district": "N'Gonga",
        "addr:place": "N'Gonga Zarma",
        "amenity": "place_of_worship",
        "fixme": "cannot be completed;HR imagery missing",
        "name": "Mosquee",
        "religion": "muslim",
        "source": "WNA Hub - Ruwa Niger Project"
      }
    },
    {
      "type": "node",
      "id": 10720292536,
      "lat": 13.1460001,
      "lon": 2.8799885,
      "tags": {
        "addr:city": "Boulel Gaouri issaka",
        "addr:district": "N'Gonga",
        "addr:place": "Boulel Gaouri Issaka",
        "amenity": "place_of_worship",
        "name": "Mosquee de Boulel Gaouri Issaka Koira",
        "religion": "muslim",
        "source": "WNA Hub - Ruwa Niger Project"
      }
    },
    {
      "type": "node",
      "id": 10720292538,
      "lat": 13.1985013,
      "lon": 2.8656439,
      "tags": {
        "addr:city": "Louloudje Peulh",
        "addr:district": "N'Gonga",
        "addr:place": "Louga",
        "amenity": "place_of_worship",
        "name": "Mosquee Louga",
        "religion": "muslim",
        "source": "WNA Hub - Ruwa Niger Project"
      }
    },
    {
      "type": "node",
      "id": 10720292539,
      "lat": 13.208046,
      "lon": 2.826204,
      "tags": {
        "addr:city": "Boula Korgui",
        "addr:district": "N'Gonga",
        "addr:place": "Boula Korgui",
        "amenity": "place_of_worship",
        "name": "Mosquee",
        "religion": "muslim",
        "source": "WNA Hub - Ruwa Niger Project"
      }
    },
    {
      "type": "node",
      "id": 10720292540,
      "lat": 13.2429102,
      "lon": 2.7616555,
      "tags": {
        "addr:city": "Kannare",
        "addr:district": "N'Gonga",
        "addr:place": "Kannare",
        "amenity": "place_of_worship",
        "name": "Mosquee",
        "religion": "muslim",
        "source": "WNA Hub - Ruwa Niger Project"
      }
    },
    {
      "type": "node",
      "id": 10720292541,
      "lat": 13.166887,
      "lon": 2.8918862,
      "tags": {
        "addr:city": "Zawa",
        "addr:district": "N'Gonga",
        "addr:place": "Zawa Fandoga",
        "amenity": "place_of_worship",
        "name": "Mosquee",
        "religion": "muslim",
        "source": "WNA Hub - Ruwa Niger Project"
      }
    },
    {
      "type": "node",
      "id": 10720292542,
      "lat": 13.1462972,
      "lon": 2.7376964,
      "tags": {
        "addr:city": "Diawando",
        "addr:district": "N'Gonga",
        "addr:place": "Diawando 1",
        "amenity": "place_of_worship",
        "fixme": "cannot be completed;HR imagery missing",
        "name": "Mosquee",
        "religion": "muslim",
        "source": "WNA Hub - Ruwa Niger Project"
      }
    },
    {
      "type": "node",
      "id": 10720292543,
      "lat": 13.2024492,
      "lon": 2.8726657,
      "tags": {
        "addr:city": "Louloudje Peulh",
        "addr:district": "N'Gonga",
        "addr:place": "Dole",
        "amenity": "place_of_worship",
        "name": "Jangarey Dolli",
        "religion": "muslim",
        "source": "WNA Hub - Ruwa Niger Project"
      }
    },
    {
      "type": "node",
      "id": 10720292544,
      "lat": 13.1954208,
      "lon": 2.7626454,
      "tags": {
        "addr:city": "Heda Faraka",
        "addr:district": "N'Gonga",
        "addr:place": "Heda Fakara",
        "amenity": "place_of_worship",
        "name": "Mosquee",
        "religion": "muslim",
        "source": "WNA Hub - Ruwa Niger Project"
      }
    },
    {
      "type": "node",
      "id": 10720292545,
      "lat": 13.1568221,
      "lon": 2.8356617,
      "tags": {
        "addr:city": "Nioumay",
        "addr:district": "N'Gonga",
        "addr:place": "Wouro Modi Babe",
        "amenity": "place_of_worship",
        "name": "Masjid Hayul Kaim",
        "religion": "muslim",
        "source": "WNA Hub - Ruwa Niger Project"
      }
    },
    {
      "type": "node",
      "id": 10720292546,
      "lat": 13.2211597,
      "lon": 2.7860127,
      "tags": {
        "addr:city": "Doulouwel Bella",
        "addr:district": "N'Gonga",
        "addr:place": "Doulouwel Bella",
        "amenity": "place_of_worship",
        "name": "Mosquee",
        "religion": "muslim",
        "source": "WNA Hub - Ruwa Niger Project"
      }
    },
    {
      "type": "node",
      "id": 10720292548,
      "lat": 13.2447792,
      "lon": 2.7674864,
      "tags": {
        "addr:city": "Kannare",
        "addr:district": "N'Gonga",
        "addr:place": "Kannare",
        "amenity": "place_of_worship",
        "fixme": "cannot be completed;HR imagery missing",
        "name": "Mosquee",
        "religion": "muslim",
        "source": "WNA Hub - Ruwa Niger Project;bing"
      }
    },
    {
      "type": "node",
      "id": 10720292550,
      "lat": 13.1406737,
      "lon": 2.7382629,
      "tags": {
        "addr:city": "Diawando II",
        "addr:district": "N'Gonga",
        "addr:place": "Diawando 1",
        "amenity": "place_of_worship",
        "name": "Guinguiray",
        "religion": "muslim",
        "source": "WNA Hub - Ruwa Niger Project"
      }
    },
    {
      "type": "node",
      "id": 10720292555,
      "lat": 13.1596543,
      "lon": 2.8685975,
      "tags": {
        "addr:city": "Barbe Zarma",
        "addr:district": "N'Gonga",
        "addr:place": "Koira Tegui",
        "amenity": "place_of_worship",
        "name": "Mosquee Koira Tegui",
        "religion": "muslim",
        "source": "WNA Hub - Ruwa Niger Project"
      }
    },
    {
      "type": "node",
      "id": 10720292557,
      "lat": 13.1215751,
      "lon": 2.8135786,
      "tags": {
        "addr:city": "Tombo Balley",
        "addr:district": "N'Gonga",
        "addr:place": "Tombo Balley Zarma",
        "amenity": "place_of_worship",
        "name": "Mosquee",
        "religion": "muslim",
        "source": "WNA Hub - Ruwa Niger Project"
      }
    },
    {
      "type": "node",
      "id": 10720292558,
      "lat": 13.1843777,
      "lon": 2.8267038,
      "tags": {
        "addr:city": "N'Gonga Zarma",
        "addr:district": "N'Gonga",
        "addr:place": "N'Gonga Zarma",
        "amenity": "place_of_worship",
        "fixme": "cannot be completed;HR imagery missing",
        "name": "Mosquee",
        "religion": "muslim",
        "source": "WNA Hub - Ruwa Niger Project"
      }
    },
    {
      "type": "node",
      "id": 10720292559,
      "lat": 13.1604149,
      "lon": 2.8592575,
      "tags": {
        "addr:city": "Barbe Peulh",
        "addr:district": "N'Gonga",
        "addr:place": "Barbe Gourouberi",
        "amenity": "place_of_worship",
        "fixme": "cannot be completed;HR imagery missing",
        "name": "Mosquee Barbe Gourouberi",
        "religion": "muslim",
        "source": "WNA Hub - Ruwa Niger Project"
      }
    },
    {
      "type": "node",
      "id": 10720292560,
      "lat": 13.1711493,
      "lon": 2.9114443,
      "tags": {
        "addr:city": "Kohinza",
        "addr:district": "N'Gonga",
        "addr:place": "Kohinza Fondoga",
        "amenity": "place_of_worship",
        "name": "Mosquee Koyinza Kaina",
        "religion": "muslim",
        "source": "WNA Hub - Ruwa Niger Project"
      }
    },
    {
      "type": "node",
      "id": 10720292562,
      "lat": 13.2071303,
      "lon": 2.8269376,
      "tags": {
        "addr:city": "Boula Korgui",
        "addr:district": "N'Gonga",
        "addr:place": "Boula Korgui",
        "amenity": "place_of_worship",
        "name": "Mosquee",
        "religion": "muslim",
        "source": "WNA Hub - Ruwa Niger Project"
      }
    },
    {
      "type": "node",
      "id": 10720292563,
      "lat": 13.185716,
      "lon": 2.8982597,
      "tags": {
        "addr:city": "Kofouno",
        "addr:district": "N'Gonga",
        "addr:place": "Kofouno",
        "amenity": "place_of_worship",
        "name": "Mosquee Principale",
        "religion": "muslim",
        "source": "WNA Hub - Ruwa Niger Project"
      }
    },
    {
      "type": "node",
      "id": 10720292564,
      "lat": 13.125751,
      "lon": 2.7283362,
      "tags": {
        "addr:city": "Diawando Daney",
        "addr:district": "N'Gonga",
        "addr:place": "Diawando 1",
        "amenity": "place_of_worship",
        "name": "Mosquee de Diawando Ganga",
        "religion": "muslim",
        "source": "WNA Hub - Ruwa Niger Project"
      }
    },
    {
      "type": "node",
      "id": 10720292565,
      "lat": 13.2094249,
      "lon": 2.913802,
      "tags": {
        "addr:city": "Louloudje Zarma",
        "addr:district": "N'Gonga",
        "addr:place": "Daney Koira",
        "amenity": "place_of_worship",
        "name": "Jangarey Daney",
        "religion": "muslim",
        "source": "WNA Hub - Ruwa Niger Project"
      }
    },
    {
      "type": "node",
      "id": 10720292567,
      "lat": 13.1421066,
      "lon": 2.8294802,
      "tags": {
        "addr:city": "Nioumay",
        "addr:district": "N'Gonga",
        "addr:place": "Nioumay Kagourou Zarma",
        "amenity": "place_of_worship",
        "name": "Mosquee",
        "religion": "muslim",
        "source": "WNA Hub - Ruwa Niger Project"
      }
    },
    {
      "type": "node",
      "id": 10720292568,
      "lat": 13.2037247,
      "lon": 2.8972949,
      "tags": {
        "addr:city": "Louloudje Zarma",
        "addr:district": "N'Gonga",
        "addr:place": "Louloudje Zarma",
        "amenity": "place_of_worship",
        "name": "Illo Kourey",
        "religion": "muslim",
        "source": "WNA Hub - Ruwa Niger Project"
      }
    },
    {
      "type": "node",
      "id": 10720292570,
      "lat": 13.146457,
      "lon": 2.8428201,
      "tags": {
        "addr:city": "Nioumay",
        "addr:district": "N'Gonga",
        "addr:place": "Nioumay Kagourou Peulh",
        "amenity": "place_of_worship",
        "name": "Mosquee",
        "religion": "muslim",
        "source": "WNA Hub - Ruwa Niger Project"
      }
    },
    {
      "type": "node",
      "id": 10720292571,
      "lat": 13.214552,
      "lon": 2.772764,
      "tags": {
        "addr:city": "Doulouwel Bella",
        "addr:district": "N'Gonga",
        "addr:place": "Doulouwel Zarma",
        "amenity": "place_of_worship",
        "name": "Mosquee",
        "religion": "muslim",
        "source": "WNA Hub - Ruwa Niger Project"
      }
    },
    {
      "type": "node",
      "id": 10720292572,
      "lat": 13.2242575,
      "lon": 2.9094897,
      "tags": {
        "addr:city": "Louloudje Zarma",
        "addr:district": "N'Gonga",
        "addr:place": "Gandji Aro Koira",
        "amenity": "place_of_worship",
        "name": "Kindo Baba Fari Djingarey",
        "religion": "muslim",
        "source": "WNA Hub - Ruwa Niger Project"
      }
    },
    {
      "type": "node",
      "id": 10720292574,
      "lat": 13.244761,
      "lon": 2.7634752,
      "tags": {
        "addr:city": "Kannare",
        "addr:district": "N'Gonga",
        "addr:place": "Kannare",
        "amenity": "place_of_worship",
        "name": "Mosquee",
        "religion": "muslim",
        "source": "WNA Hub - Ruwa Niger Project"
      }
    },
    {
      "type": "node",
      "id": 10720292575,
      "lat": 13.2155055,
      "lon": 2.8766866,
      "tags": {
        "addr:city": "Tinoma",
        "addr:district": "N'Gonga",
        "addr:place": "Kourey Koukou",
        "amenity": "place_of_worship",
        "name": "Mosquee de Vendredi",
        "religion": "muslim",
        "source": "WNA Hub - Ruwa Niger Project"
      }
    },
    {
      "type": "node",
      "id": 10720292577,
      "lat": 13.2182251,
      "lon": 2.7840864,
      "tags": {
        "addr:city": "Doulouwel Bella",
        "addr:district": "N'Gonga",
        "addr:place": "Doulouwel Bella",
        "amenity": "place_of_worship",
        "name": "Mosquee",
        "religion": "muslim",
        "source": "WNA Hub - Ruwa Niger Project"
      }
    },
    {
      "type": "node",
      "id": 10720292581,
      "lat": 13.11986,
      "lon": 2.8611775,
      "tags": {
        "addr:city": "Guillare Peulh",
        "addr:district": "N'Gonga",
        "addr:place": "Alpha Koira",
        "amenity": "place_of_worship",
        "name": "Mosquee",
        "religion": "muslim",
        "source": "WNA Hub - Ruwa Niger Project"
      }
    },
    {
      "type": "node",
      "id": 10720292584,
      "lat": 13.0746248,
      "lon": 2.7194767,
      "tags": {
        "addr:city": "Guiaoudire",
        "addr:district": "Fakara",
        "addr:place": "Guiaoudire",
        "amenity": "place_of_worship",
        "name": "Mosquee",
        "religion": "muslim",
        "source": "WNA Hub - Ruwa Niger Project"
      }
    },
    {
      "type": "node",
      "id": 10720292585,
      "lat": 13.17889,
      "lon": 2.823662,
      "tags": {
        "addr:city": "N'Gonga Zarma",
        "addr:district": "N'Gonga",
        "addr:place": "N'Gonga Zarma",
        "amenity": "place_of_worship",
        "name": "Mosquee",
        "religion": "muslim",
        "source": "WNA Hub - Ruwa Niger Project"
      }
    },
    {
      "type": "node",
      "id": 10720292586,
      "lat": 13.2117689,
      "lon": 2.82768,
      "tags": {
        "addr:city": "Boula Korgui",
        "addr:district": "N'Gonga",
        "addr:place": "Boula Korgui",
        "amenity": "place_of_worship",
        "fixme": "cannot be completed;HR imagery missing",
        "name": "Mosquee",
        "religion": "muslim",
        "source": "WNA Hub - Ruwa Niger Project"
      }
    },
    {
      "type": "node",
      "id": 10720292588,
      "lat": 13.1943401,
      "lon": 2.8645243,
      "tags": {
        "addr:city": "Louloudje Peulh",
        "addr:district": "N'Gonga",
        "addr:place": "Louga",
        "amenity": "place_of_worship",
        "name": "Mosquee Bello",
        "religion": "muslim",
        "source": "WNA Hub - Ruwa Niger Project"
      }
    },
    {
      "type": "node",
      "id": 10720292589,
      "lat": 13.2080877,
      "lon": 2.8267988,
      "tags": {
        "addr:city": "Boula Korgui",
        "addr:district": "N'Gonga",
        "addr:place": "Boula Korgui",
        "amenity": "place_of_worship",
        "name": "Mosquee",
        "religion": "muslim",
        "source": "WNA Hub - Ruwa Niger Project"
      }
    },
    {
      "type": "node",
      "id": 10720292590,
      "lat": 13.2049737,
      "lon": 2.9369149,
      "tags": {
        "addr:city": "Kalla Pathe",
        "addr:district": "N'Gonga",
        "addr:place": "Koira Tegui",
        "amenity": "place_of_worship",
        "name": "Mosquee Koiratagui",
        "religion": "muslim",
        "source": "WNA Hub - Ruwa Niger Project"
      }
    },
    {
      "type": "node",
      "id": 10720292592,
      "lat": 13.1407997,
      "lon": 2.743235,
      "tags": {
        "addr:city": "Diawando",
        "addr:district": "N'Gonga",
        "addr:place": "Diawando 1",
        "amenity": "place_of_worship",
        "name": "Mosquee",
        "religion": "muslim",
        "source": "WNA Hub - Ruwa Niger Project"
      }
    },
    {
      "type": "node",
      "id": 10720292593,
      "lat": 13.2051955,
      "lon": 2.8588852,
      "tags": {
        "addr:city": "Louloudje Peulh",
        "addr:district": "N'Gonga",
        "addr:place": "Louga",
        "amenity": "place_of_worship",
        "name": "Mosquee",
        "religion": "muslim",
        "source": "WNA Hub - Ruwa Niger Project"
      }
    },
    {
      "type": "node",
      "id": 10720292594,
      "lat": 13.1274069,
      "lon": 2.8515678,
      "tags": {
        "addr:city": "Guillare Peulh",
        "addr:district": "N'Gonga",
        "addr:place": "Guillare Peulh",
        "amenity": "place_of_worship",
        "fixme": "mosque",
        "name": "Mosquee",
        "religion": "muslim",
        "source": "WNA Hub - Ruwa Niger Project"
      }
    },
    {
      "type": "node",
      "id": 10720292595,
      "lat": 13.15912,
      "lon": 2.8259813,
      "tags": {
        "addr:city": "Nioumay",
        "addr:district": "N'Gonga",
        "addr:place": "Nioumey Kagourou Zarma",
        "amenity": "place_of_worship",
        "name": "Mosquee Ali",
        "religion": "muslim",
        "source": "WNA Hub - Ruwa Niger Project"
      }
    },
    {
      "type": "node",
      "id": 10720292596,
      "lat": 13.1841945,
      "lon": 2.7164705,
      "tags": {
        "addr:city": "Marou Beri Sekou Kouara",
        "addr:district": "Fakara",
        "addr:place": "Marou Beri Sekou Kouara",
        "amenity": "place_of_worship",
        "name": "Mosquee de Sekou",
        "religion": "muslim",
        "source": "WNA Hub - Ruwa Niger Project"
      }
    },
    {
      "type": "node",
      "id": 10720292598,
      "lat": 13.1490707,
      "lon": 2.8182009,
      "tags": {
        "addr:city": "Nioumay",
        "addr:district": "N'Gonga",
        "addr:place": "Nioumay Kagourou Zarma",
        "amenity": "place_of_worship",
        "name": "Mosquee",
        "religion": "muslim",
        "source": "WNA Hub - Ruwa Niger Project"
      }
    },
    {
      "type": "node",
      "id": 10720292599,
      "lat": 13.1390509,
      "lon": 2.7418207,
      "tags": {
        "addr:city": "Diawando II",
        "addr:district": "N'Gonga",
        "addr:place": "Diawando 1",
        "amenity": "place_of_worship",
        "name": "Mosquee Diawando",
        "religion": "muslim",
        "source": "WNA Hub - Ruwa Niger Project"
      }
    },
    {
      "type": "node",
      "id": 10720292600,
      "lat": 13.2064793,
      "lon": 2.898155,
      "tags": {
        "addr:city": "Louloudje Zarma",
        "addr:district": "N'Gonga",
        "addr:place": "Koira Tegui",
        "amenity": "place_of_worship",
        "name": "Mosquee de Vendredi",
        "religion": "muslim",
        "source": "WNA Hub - Ruwa Niger Project"
      }
    },
    {
      "type": "node",
      "id": 10720292602,
      "lat": 13.1605591,
      "lon": 2.8397717,
      "tags": {
        "addr:city": "N'Gonga Peulh",
        "addr:district": "N'Gonga",
        "addr:place": "Bellare",
        "amenity": "place_of_worship",
        "name": "Bellare Jangarey",
        "religion": "muslim",
        "source": "WNA Hub - Ruwa Niger Project"
      }
    },
    {
      "type": "node",
      "id": 10720292604,
      "lat": 13.1818209,
      "lon": 2.870121,
      "tags": {
        "addr:city": "Barbe Zarma",
        "addr:district": "N'Gonga",
        "addr:place": "Barbe Zarma",
        "amenity": "place_of_worship",
        "name": "Mosquee Idi",
        "religion": "muslim",
        "source": "WNA Hub - Ruwa Niger Project"
      }
    },
    {
      "type": "node",
      "id": 10720292606,
      "lat": 13.2178269,
      "lon": 2.8764896,
      "tags": {
        "addr:city": "Tinoma",
        "addr:district": "N'Gonga",
        "addr:place": "Tinoma",
        "amenity": "place_of_worship",
        "name": "Mosquee Ousseini",
        "religion": "muslim",
        "source": "WNA Hub - Ruwa Niger Project"
      }
    },
    {
      "type": "node",
      "id": 10720292607,
      "lat": 13.2242114,
      "lon": 2.8947663,
      "tags": {
        "addr:city": "Garoubeye",
        "addr:district": "N'Gonga",
        "addr:place": "Garoubeye",
        "amenity": "place_of_worship",
        "name": "Grande Mosquee",
        "religion": "muslim",
        "source": "WNA Hub - Ruwa Niger Project"
      }
    },
    {
      "type": "node",
      "id": 10720292608,
      "lat": 13.1813899,
      "lon": 2.8253736,
      "tags": {
        "addr:city": "N'Gonga Zarma",
        "addr:district": "N'Gonga",
        "addr:place": "N'Gonga Zarma",
        "amenity": "place_of_worship",
        "name": "Kabeyse Guingara",
        "religion": "muslim",
        "source": "WNA Hub - Ruwa Niger Project"
      }
    },
    {
      "type": "node",
      "id": 10720292609,
      "lat": 13.1430986,
      "lon": 2.8667306,
      "tags": {
        "addr:city": "Bagawamou",
        "addr:district": "N'Gonga",
        "addr:place": "Bagawamou",
        "amenity": "place_of_worship",
        "fixme": "cannot be completed;HR imagery missing",
        "name": "Mosquee de Bagawamou",
        "religion": "muslim",
        "source": "WNA Hub - Ruwa Niger Project"
      }
    },
    {
      "type": "node",
      "id": 10720292610,
      "lat": 13.1787023,
      "lon": 2.9146222,
      "tags": {
        "addr:city": "Kohinza",
        "addr:district": "N'Gonga",
        "addr:place": "Kohinza",
        "amenity": "place_of_worship",
        "name": "Kohinza Jingarey",
        "religion": "muslim",
        "source": "WNA Hub - Ruwa Niger Project"
      }
    },
    {
      "type": "node",
      "id": 10720292611,
      "lat": 13.1892338,
      "lon": 2.8787764,
      "tags": {
        "addr:city": "Tinoma",
        "addr:district": "N'Gonga",
        "addr:place": "Tinoma",
        "amenity": "place_of_worship",
        "name": "Mosquee",
        "religion": "muslim",
        "source": "WNA Hub - Ruwa Niger Project"
      }
    },
    {
      "type": "node",
      "id": 10720292613,
      "lat": 13.1805877,
      "lon": 2.8246115,
      "tags": {
        "addr:city": "N'Gonga Zarma",
        "addr:district": "N'Gonga",
        "addr:place": "N'Gonga Zarma",
        "amenity": "place_of_worship",
        "name": "Mosquee",
        "religion": "muslim",
        "source": "WNA Hub - Ruwa Niger Project"
      }
    },
    {
      "type": "node",
      "id": 10720292614,
      "lat": 13.1481041,
      "lon": 2.8816414,
      "tags": {
        "addr:city": "Boulel Gaouri Modibo",
        "addr:district": "N'Gonga",
        "addr:place": "Boulel Gaouri Modibo",
        "amenity": "place_of_worship",
        "name": "Mosquee de Boulel Gaouri Modibo",
        "religion": "muslim",
        "source": "WNA Hub - Ruwa Niger Project"
      }
    },
    {
      "type": "node",
      "id": 10720292615,
      "lat": 13.0726817,
      "lon": 2.7181852,
      "tags": {
        "addr:city": "Guiaoudire",
        "addr:district": "Fakara",
        "addr:place": "Guiaoudire",
        "amenity": "place_of_worship",
        "name": "Mosquee",
        "religion": "muslim",
        "source": "WNA Hub - Ruwa Niger Project"
      }
    },
    {
      "type": "node",
      "id": 10720292616,
      "lat": 13.2425129,
      "lon": 2.7640788,
      "tags": {
        "addr:city": "Kannare",
        "addr:district": "N'Gonga",
        "addr:place": "Kannare",
        "amenity": "place_of_worship",
        "name": "Mosquee",
        "religion": "muslim",
        "source": "WNA Hub - Ruwa Niger Project"
      }
    },
    {
      "type": "node",
      "id": 10720292617,
      "lat": 13.1623458,
      "lon": 2.887036,
      "tags": {
        "addr:city": "Zawa",
        "addr:district": "N'Gonga",
        "addr:place": "Zawa Fandoga",
        "amenity": "place_of_worship",
        "name": "Mosquee Zawa",
        "religion": "muslim",
        "source": "WNA Hub - Ruwa Niger Project"
      }
    },
    {
      "type": "node",
      "id": 10720292618,
      "lat": 13.1482636,
      "lon": 2.8953891,
      "tags": {
        "addr:city": "Boulel Gaouri Zarma",
        "addr:district": "N'Gonga",
        "addr:place": "Boulel Gaouri Zarma",
        "amenity": "place_of_worship",
        "name": "Mosquee Boulel Gaouri Zarma",
        "religion": "muslim",
        "source": "WNA Hub - Ruwa Niger Project"
      }
    },
    {
      "type": "node",
      "id": 10720292619,
      "lat": 13.1986453,
      "lon": 2.8566472,
      "tags": {
        "addr:city": "Louloudje Peulh",
        "addr:district": "N'Gonga",
        "addr:place": "Louga",
        "amenity": "place_of_worship",
        "name": "Mosquee Hainikoye",
        "religion": "muslim",
        "source": "WNA Hub - Ruwa Niger Project"
      }
    },
    {
      "type": "node",
      "id": 10720292620,
      "lat": 13.2466834,
      "lon": 2.7618119,
      "tags": {
        "addr:city": "Kannare",
        "addr:district": "N'Gonga",
        "addr:place": "Kannare",
        "amenity": "place_of_worship",
        "name": "Mosquee",
        "religion": "muslim",
        "source": "WNA Hub - Ruwa Niger Project"
      }
    },
    {
      "type": "node",
      "id": 10720292621,
      "lat": 13.1570461,
      "lon": 2.8278302,
      "tags": {
        "addr:city": "Nioumay",
        "addr:district": "N'Gonga",
        "addr:place": "Nioumay Kagourou Zarma",
        "amenity": "place_of_worship",
        "name": "Mosquee",
        "religion": "muslim",
        "source": "WNA Hub - Ruwa Niger Project"
      }
    },
    {
      "type": "node",
      "id": 10720292622,
      "lat": 13.2154127,
      "lon": 2.7779746,
      "tags": {
        "addr:city": "Doulouwel Bella",
        "addr:district": "N'Gonga",
        "addr:place": "Doulouwel Zarma",
        "amenity": "place_of_worship",
        "name": "Mosquee",
        "religion": "muslim",
        "source": "WNA Hub - Ruwa Niger Project"
      }
    },
    {
      "type": "node",
      "id": 10720292623,
      "lat": 13.1776061,
      "lon": 2.887193,
      "tags": {
        "addr:city": "Louloudje Zarma",
        "addr:district": "N'Gonga",
        "addr:place": "Djassarey",
        "amenity": "place_of_worship",
        "name": "Mosquee de Djassarey",
        "religion": "muslim",
        "source": "WNA Hub - Ruwa Niger Project"
      }
    },
    {
      "type": "node",
      "id": 10720292624,
      "lat": 13.2448151,
      "lon": 2.7613636,
      "tags": {
        "addr:city": "Kannare",
        "addr:district": "N'Gonga",
        "addr:place": "Kannare",
        "amenity": "place_of_worship",
        "name": "Grande Mosquee",
        "religion": "muslim",
        "source": "WNA Hub - Ruwa Niger Project"
      }
    },
    {
      "type": "node",
      "id": 10720292625,
      "lat": 13.2014041,
      "lon": 2.8457943,
      "tags": {
        "addr:city": "Tchede Bonhamni",
        "addr:district": "N'Gonga",
        "addr:place": "Tchede Bonhamni",
        "amenity": "place_of_worship",
        "name": "Mosquee",
        "religion": "muslim",
        "source": "WNA Hub - Ruwa Niger Project"
      }
    },
    {
      "type": "node",
      "id": 10720292627,
      "lat": 13.1528453,
      "lon": 2.7125346,
      "tags": {
        "addr:city": "Marou Beri Djatinga",
        "addr:district": "Fakara",
        "addr:place": "Djatinga",
        "amenity": "place_of_worship",
        "name": "Mosquee",
        "religion": "muslim",
        "source": "WNA Hub - Ruwa Niger Project"
      }
    },
    {
      "type": "node",
      "id": 11601968025,
      "lat": 9.0094533,
      "lon": 7.6016508,
      "tags": {
        "addr:city": "karu",
        "addr:housenumber": "60",
        "addr:postcode": "961105",
        "addr:street": "Aliyu Lamu Yola Street, Mararaba",
        "amenity": "place_of_worship",
        "denomination": "sunni",
        "name": "Awwaliyya Mosque",
        "religion": "muslim"
      }
    },
    {
      "type": "node",
      "id": 12282398589,
      "lat": 11.955609,
      "lon": 8.4690451,
      "tags": {
        "amenity": "place_of_worship",
        "fac_pay": "no",
        "name": "ASHABUL KHAFI MASJID",
        "operator": "community",
        "religion": "muslim",
        "source": "ideamaps_2024",
        "status": "functional",
        "use": "religious",
        "users_PLWD": "yes",
        "users_boy": "yes",
        "users_female": "no",
        "users_girl": "no",
        "users_men": "yes"
      }
    },
    {
      "type": "node",
      "id": 12457220758,
      "lat": 11.5944628,
      "lon": 7.2259583,
      "tags": {
        "amenity": "place_of_worship",
        "name": "Central Mosque Mairua",
        "religion": "muslim"
      }
    },
    {
      "type": "node",
      "id": 13032418047,
      "lat": 10.6095723,
      "lon": 7.4415243,
      "tags": {
        "amenity": "place_of_worship",
        "name": "AFIT Mosque(Masjid)",
        "religion": "muslim"
      }
    },
    {
      "type": "node",
      "id": 13208413659,
      "lat": 12.04354,
      "lon": 5.74386,
      "tags": {
        "amenity": "place_of_worship",
        "name": "Nasarawa Burkullu Central Mosque III",
        "religion": "muslim"
      }
    },
    {
      "type": "node",
      "id": 13208457371,
      "lat": 12.04845,
      "lon": 5.74228,
      "tags": {
        "amenity": "place_of_worship",
        "name": "Nasarawa Burkullu Central Mosque II",
        "religion": "muslim"
      }
    },
    {
      "type": "node",
      "id": 13208457487,
      "lat": 12.04967,
      "lon": 5.73786,
      "tags": {
        "amenity": "place_of_worship",
        "name": "Nasarawa Burkullu Central Mosque I",
        "religion": "muslim"
      }
    },
    {
      "type": "way",
      "id": 176918845,
      "center": {
        "lat": 9.0753194,
        "lon": 7.484272
      },
      "tags": {
        "addr:street": "Ibrahim Babangida way",
        "amenity": "place_of_worship",
        "building": "mosque",
        "denomination": "sunni",
        "name": "Al-Nour Mosque",
        "religion": "muslim",
        "source": "Bing"
      },
      "lat": 9.0753194,
      "lon": 7.484272
    },
    {
      "type": "way",
      "id": 188837229,
      "center": {
        "lat": 9.0601964,
        "lon": 7.4897944
      },
      "tags": {
        "addr:city": "Abuja",
        "addr:street": "Central Area",
        "amenity": "place_of_worship",
        "building": "mosque",
        "denomination": "sunni",
        "layer": "1",
        "name": "Abuja National Mosque",
        "religion": "muslim",
        "roof:shape": "flat",
        "wheelchair": "limited"
      },
      "lat": 9.0601964,
      "lon": 7.4897944
    },
    {
      "type": "way",
      "id": 199223405,
      "center": {
        "lat": 9.0994159,
        "lon": 7.4717992
      },
      "tags": {
        "amenity": "place_of_worship",
        "building": "yes",
        "denomination": "sunni",
        "name": "katampe local mosque",
        "religion": "muslim"
      },
      "lat": 9.0994159,
      "lon": 7.4717992
    },
    {
      "type": "way",
      "id": 285090303,
      "center": {
        "lat": 11.9746439,
        "lon": 8.424164
      },
      "tags": {
        "amenity": "place_of_worship",
        "building": "yes",
        "name": "CIT Mosque",
        "religion": "muslim"
      },
      "lat": 11.9746439,
      "lon": 8.424164
    },
    {
      "type": "way",
      "id": 285090308,
      "center": {
        "lat": 11.9725279,
        "lon": 8.4234067
      },
      "tags": {
        "amenity": "place_of_worship",
        "building": "yes",
        "name": "Mosque",
        "religion": "muslim"
      },
      "lat": 11.9725279,
      "lon": 8.4234067
    },
    {
      "type": "way",
      "id": 314881115,
      "center": {
        "lat": 9.594885,
        "lon": 6.5631824
      },
      "tags": {
        "amenity": "place_of_worship",
        "building": "mosque",
        "name": "Mosque",
        "religion": "muslim"
      },
      "lat": 9.594885,
      "lon": 6.5631824
    },
    {
      "type": "way",
      "id": 315788860,
      "center": {
        "lat": 9.4229892,
        "lon": 6.3848868
      },
      "tags": {
        "amenity": "place_of_worship",
        "building": "mosque",
        "name": "Mosque",
        "religion": "muslim"
      },
      "lat": 9.4229892,
      "lon": 6.3848868
    },
    {
      "type": "way",
      "id": 315792229,
      "center": {
        "lat": 9.0953752,
        "lon": 6.025212
      },
      "tags": {
        "amenity": "place_of_worship",
        "building": "mosque",
        "name": "Mosque",
        "religion": "muslim"
      },
      "lat": 9.0953752,
      "lon": 6.025212
    },
    {
      "type": "way",
      "id": 359829206,
      "center": {
        "lat": 10.5248409,
        "lon": 7.4070468
      },
      "tags": {
        "amenity": "place_of_worship",
        "building": "yes",
        "denomination": "sunni",
        "name": "Massalacin Isah Garo",
        "religion": "muslim"
      },
      "lat": 10.5248409,
      "lon": 7.4070468
    },
    {
      "type": "way",
      "id": 379658753,
      "center": {
        "lat": 12.9926254,
        "lon": 7.599064
      },
      "tags": {
        "amenity": "place_of_worship",
        "building": "mosque",
        "name": "Central Mosque",
        "religion": "muslim"
      },
      "lat": 12.9926254,
      "lon": 7.599064
    },
    {
      "type": "way",
      "id": 441116458,
      "center": {
        "lat": 12.6533534,
        "lon": 8.4149914
      },
      "tags": {
        "amenity": "place_of_worship",
        "building": "mosque",
        "denomination": "sunni",
        "name": "Mosque",
        "religion": "muslim"
      },
      "lat": 12.6533534,
      "lon": 8.4149914
    },
    {
      "type": "way",
      "id": 484043133,
      "center": {
        "lat": 11.1501339,
        "lon": 7.6539943
      },
      "tags": {
        "amenity": "place_of_worship",
        "building": "mosque",
        "denomination": "sunni",
        "name": "Geography Department Mosque",
        "religion": "muslim"
      },
      "lat": 11.1501339,
      "lon": 7.6539943
    },
    {
      "type": "way",
      "id": 488217655,
      "center": {
        "lat": 11.15495,
        "lon": 7.652876
      },
      "tags": {
        "amenity": "place_of_worship",
        "building": "yes",
        "name": "Suleiman Masjid",
        "religion": "muslim"
      },
      "lat": 11.15495,
      "lon": 7.652876
    },
    {
      "type": "way",
      "id": 488835901,
      "center": {
        "lat": 10.5086072,
        "lon": 7.432814
      },
      "tags": {
        "amenity": "place_of_worship",
        "denomination": "sunni",
        "name": "Central Mosque, Maiduguri Road",
        "religion": "muslim",
        "source": "JNI"
      },
      "lat": 10.5086072,
      "lon": 7.432814
    },
    {
      "type": "way",
      "id": 500138849,
      "center": {
        "lat": 10.5560191,
        "lon": 7.4454176
      },
      "tags": {
        "amenity": "place_of_worship",
        "building": "yes",
        "name": "Eid Prayer Ground",
        "religion": "muslim"
      },
      "lat": 10.5560191,
      "lon": 7.4454176
    },
    {
      "type": "way",
      "id": 514966831,
      "center": {
        "lat": 10.1365516,
        "lon": 6.0201719
      },
      "tags": {
        "addr:city": "MARIGA",
        "addr:street": "KANTUDU",
        "amenity": "place_of_worship",
        "building": "yes",
        "name": "CENTRAL MOSQUE",
        "religion": "muslim"
      },
      "lat": 10.1365516,
      "lon": 6.0201719
    },
    {
      "type": "way",
      "id": 532156034,
      "center": {
        "lat": 13.6650886,
        "lon": 6.6997478
      },
      "tags": {
        "amenity": "place_of_worship",
        "building": "mosque",
        "name": "mosquee du vendredi",
        "religion": "muslim"
      },
      "lat": 13.6650886,
      "lon": 6.6997478
    },
    {
      "type": "way",
      "id": 574072118,
      "center": {
        "lat": 9.5323233,
        "lon": 6.4437703
      },
      "tags": {
        "amenity": "place_of_worship",
        "building": "yes",
        "name": "Mosque",
        "religion": "muslim"
      },
      "lat": 9.5323233,
      "lon": 6.4437703
    },
    {
      "type": "way",
      "id": 594152397,
      "center": {
        "lat": 12.9828047,
        "lon": 7.6042034
      },
      "tags": {
        "addr:city": "Katsina",
        "addr:street": "IBB Way",
        "amenity": "place_of_worship",
        "building": "yes",
        "name": "Masallacin Kandahar",
        "religion": "muslim"
      },
      "lat": 12.9828047,
      "lon": 7.6042034
    },
    {
      "type": "way",
      "id": 664001745,
      "center": {
        "lat": 9.5163801,
        "lon": 6.4646736
      },
      "tags": {
        "amenity": "place_of_worship",
        "building": "yes",
        "name": "Mosque",
        "religion": "muslim"
      },
      "lat": 9.5163801,
      "lon": 6.4646736
    },
    {
      "type": "way",
      "id": 669088352,
      "center": {
        "lat": 11.1613498,
        "lon": 7.646702
      },
      "tags": {
        "amenity": "place_of_worship",
        "building": "residential",
        "denomination": "sunni",
        "name": "Samaru Mosque",
        "religion": "muslim"
      },
      "lat": 11.1613498,
      "lon": 7.646702
    },
    {
      "type": "way",
      "id": 672190030,
      "center": {
        "lat": 9.5832787,
        "lon": 6.564997
      },
      "tags": {
        "amenity": "place_of_worship",
        "building": "yes",
        "name": "Niger State Secretariat Juma'at Mosque",
        "religion": "muslim"
      },
      "lat": 9.5832787,
      "lon": 6.564997
    },
    {
      "type": "way",
      "id": 676250820,
      "center": {
        "lat": 11.9663001,
        "lon": 8.4305806
      },
      "tags": {
        "amenity": "place_of_worship",
        "name": "Mosque",
        "religion": "muslim"
      },
      "lat": 11.9663001,
      "lon": 8.4305806
    },
    {
      "type": "way",
      "id": 942258565,
      "center": {
        "lat": 9.0167448,
        "lon": 7.4223185
      },
      "tags": {
        "amenity": "place_of_worship",
        "building": "yes",
        "name": "Da`awa musul",
        "religion": "muslim",
        "source": "Nigerian Red Cross Society"
      },
      "lat": 9.0167448,
      "lon": 7.4223185
    },
    {
      "type": "way",
      "id": 944876066,
      "center": {
        "lat": 9.0160912,
        "lon": 7.4208215
      },
      "tags": {
        "amenity": "place_of_worship",
        "building": "yes",
        "name": "Kuchigoro Mosque",
        "religion": "muslim",
        "source": "Nigerian Red Cross Society"
      },
      "lat": 9.0160912,
      "lon": 7.4208215
    },
    {
      "type": "way",
      "id": 1035375213,
      "center": {
        "lat": 10.5110671,
        "lon": 7.4257397
      },
      "tags": {
        "amenity": "place_of_worship",
        "name": "Nawairudeen Central Mosque",
        "religion": "muslim"
      },
      "lat": 10.5110671,
      "lon": 7.4257397
    },
    {
      "type": "way",
      "id": 1085895661,
      "center": {
        "lat": 9.0596339,
        "lon": 7.4675616
      },
      "tags": {
        "amenity": "place_of_worship",
        "building": "yes",
        "name": "Fouad Lababidi Mosque",
        "religion": "muslim"
      },
      "lat": 9.0596339,
      "lon": 7.4675616
    },
    {
      "type": "way",
      "id": 1091589246,
      "center": {
        "lat": 13.6642759,
        "lon": 6.7059289
      },
      "tags": {
        "amenity": "place_of_worship",
        "name": "Terrain de priere id",
        "religion": "muslim"
      },
      "lat": 13.6642759,
      "lon": 6.7059289
    },
    {
      "type": "way",
      "id": 1122738884,
      "center": {
        "lat": 9.0456722,
        "lon": 7.50209
      },
      "tags": {
        "amenity": "place_of_worship",
        "building": "yes",
        "denomination": "sunni",
        "name": "Area 11 Jummat Mosque",
        "religion": "muslim"
      },
      "lat": 9.0456722,
      "lon": 7.50209
    },
    {
      "type": "way",
      "id": 1460726859,
      "center": {
        "lat": 11.2874915,
        "lon": 5.9389713
      },
      "tags": {
        "addr:city": "Bena",
        "addr:housenumber": "7WPQ+XJW",
        "addr:postcode": "872104",
        "addr:street": "Garke RD danrimi Bena",
        "amenity": "place_of_worship",
        "building": "yes",
        "denomination": "sunni",
        "email": "ashbenna@gmail.con",
        "name": "Danrimi Juma'at mosque",
        "religion": "muslim"
      },
      "lat": 11.2874915,
      "lon": 5.9389713
    },
    {
      "type": "node",
      "id": 2154581879,
      "lat": 6.3183322,
      "lon": 5.6294051,
      "tags": {
        "amenity": "place_of_worship",
        "name": "Mosque",
        "religion": "muslim"
      }
    },
    {
      "type": "node",
      "id": 2155705401,
      "lat": 6.318311,
      "lon": 5.6294748,
      "tags": {
        "amenity": "place_of_worship",
        "name": "Mosque",
        "religion": "muslim"
      }
    },
    {
      "type": "node",
      "id": 2161069954,
      "lat": 6.3146762,
      "lon": 5.6084374,
      "tags": {
        "amenity": "place_of_worship",
        "name": "Mosque",
        "religion": "muslim"
      }
    },
    {
      "type": "node",
      "id": 2350849570,
      "lat": 6.3389307,
      "lon": 5.6226695,
      "tags": {
        "amenity": "place_of_worship",
        "name": "Central Mosque",
        "religion": "muslim"
      }
    },
    {
      "type": "node",
      "id": 4169937389,
      "lat": 4.841788,
      "lon": 7.0268,
      "tags": {
        "addr:street": "97 Special Operations Group NAF",
        "amenity": "place_of_worship",
        "name": "Nigerian Air Force Central Mosque",
        "religion": "muslim"
      }
    },
    {
      "type": "node",
      "id": 4311113116,
      "lat": 6.3810188,
      "lon": 2.7064594,
      "tags": {
        "amenity": "place_of_worship",
        "name": "Ste Awod-Inter SA",
        "religion": "muslim"
      }
    },
    {
      "type": "node",
      "id": 7382717015,
      "lat": 6.494525,
      "lon": 3.38823,
      "tags": {
        "addr:street": "Olountooba Street, Migbewe",
        "amenity": "place_of_worship",
        "building": "mosque",
        "name": "Olountooba Mosque",
        "religion": "muslim"
      }
    },
    {
      "type": "node",
      "id": 7382717017,
      "lat": 6.4945599,
      "lon": 3.3880765,
      "tags": {
        "addr:street": "Migbewe 1, Baale Aji Area, Makoko",
        "amenity": "place_of_worship",
        "building": "mosque",
        "name": "Olountoba Central Mosque",
        "religion": "muslim"
      }
    },
    {
      "type": "way",
      "id": 292814354,
      "center": {
        "lat": 6.4670776,
        "lon": 3.2947556
      },
      "tags": {
        "amenity": "place_of_worship",
        "building": "mosque",
        "denomination": "sunni",
        "name": "Mosque",
        "religion": "muslim"
      },
      "lat": 6.4670776,
      "lon": 3.2947556
    },
    {
      "type": "way",
      "id": 317758857,
      "center": {
        "lat": 6.4529789,
        "lon": 3.519422
      },
      "tags": {
        "amenity": "place_of_worship",
        "building": "yes",
        "name": "Ojomu Central Mosque",
        "religion": "muslim"
      },
      "lat": 6.4529789,
      "lon": 3.519422
    },
    {
      "type": "way",
      "id": 501775825,
      "center": {
        "lat": 4.904482,
        "lon": 6.9238432
      },
      "tags": {
        "amenity": "place_of_worship",
        "building": "yes",
        "name": "Mosque",
        "religion": "muslim"
      },
      "lat": 4.904482,
      "lon": 6.9238432
    },
    {
      "type": "way",
      "id": 704783391,
      "center": {
        "lat": 6.4573989,
        "lon": 3.3881685
      },
      "tags": {
        "amenity": "place_of_worship",
        "building": "yes",
        "name": "Lagos Central Mosque",
        "religion": "muslim",
        "wikidata": "Q60775381",
        "wikipedia": "en:Lagos Central Mosque"
      },
      "lat": 6.4573989,
      "lon": 3.3881685
    },
    {
      "type": "way",
      "id": 1373912225,
      "center": {
        "lat": 6.4448081,
        "lon": 3.4175989
      },
      "tags": {
        "amenity": "place_of_worship",
        "name": "Syrian Mosque",
        "religion": "muslim"
      },
      "lat": 6.4448081,
      "lon": 3.4175989
    },
    {
      "type": "node",
      "id": 976599053,
      "lat": 5.8524553,
      "lon": 10.5168876,
      "tags": {
        "amenity": "place_of_worship",
        "name": "Mosque Mbashie",
        "religion": "muslim"
      }
    },
    {
      "type": "node",
      "id": 976652129,
      "lat": 5.8955313,
      "lon": 10.5351544,
      "tags": {
        "amenity": "place_of_worship",
        "name": "Mosque(Islamic Research Centre)",
        "religion": "muslim"
      }
    },
    {
      "type": "node",
      "id": 1069147010,
      "lat": 5.988211,
      "lon": 10.4346927,
      "tags": {
        "amenity": "place_of_worship",
        "name": "Mosque Ndop",
        "religion": "muslim"
      }
    },
    {
      "type": "node",
      "id": 1749635553,
      "lat": 5.9574377,
      "lon": 10.1544584,
      "tags": {
        "amenity": "place_of_worship",
        "name": "Masjidun Nou",
        "name:etymology": "Noé",
        "name:etymology:wikidata": "Q81422",
        "name:etymology:wikipedia": "fr:Noé (patriarche)",
        "name:fr": "Mosquée Noé",
        "religion": "muslim"
      }
    },
    {
      "type": "node",
      "id": 3114824093,
      "lat": 5.8798375,
      "lon": 10.5180073,
      "tags": {
        "amenity": "place_of_worship",
        "name": "Mbafuh Mosque",
        "religion": "muslim"
      }
    },
    {
      "type": "node",
      "id": 5128009809,
      "lat": 5.7368889,
      "lon": 10.8831667,
      "tags": {
        "amenity": "place_of_worship",
        "building": "mosque",
        "name": "Mosqué de Njintout",
        "religion": "muslim",
        "wheelchair": "no"
      }
    },
    {
      "type": "node",
      "id": 5934688935,
      "lat": 7.3162401,
      "lon": 13.5953495,
      "tags": {
        "amenity": "place_of_worship",
        "name": "mosquee",
        "religion": "muslim",
        "source": "ACAGER - OSM_Cameroon"
      }
    },
    {
      "type": "node",
      "id": 5934688939,
      "lat": 7.31627,
      "lon": 13.5987057,
      "tags": {
        "amenity": "place_of_worship",
        "name": "mosquee",
        "religion": "muslim",
        "source": "ACAGER - OSM_Cameroon"
      }
    },
    {
      "type": "node",
      "id": 5934688941,
      "lat": 7.3599921,
      "lon": 13.5896275,
      "tags": {
        "amenity": "place_of_worship",
        "name": "Mosquee salman alfarissi de gada-mabanga",
        "religion": "muslim",
        "source": "ACAGER - OSM_Cameroon"
      }
    },
    {
      "type": "node",
      "id": 5934688942,
      "lat": 7.3018559,
      "lon": 13.5783926,
      "tags": {
        "amenity": "place_of_worship",
        "name": "Oquée",
        "religion": "muslim",
        "source": "ACAGER - OSM_Cameroon"
      }
    },
    {
      "type": "node",
      "id": 5934688943,
      "lat": 7.3665658,
      "lon": 13.5794168,
      "tags": {
        "amenity": "place_of_worship",
        "name": "Mosquee de Moussa",
        "religion": "muslim",
        "source": "ACAGER - OSM_Cameroon"
      }
    },
    {
      "type": "node",
      "id": 5934688944,
      "lat": 7.3165255,
      "lon": 13.6006997,
      "tags": {
        "amenity": "place_of_worship",
        "name": "mosquee",
        "religion": "muslim",
        "source": "ACAGER - OSM_Cameroon"
      }
    },
    {
      "type": "node",
      "id": 5934688948,
      "lat": 7.3447753,
      "lon": 13.5921705,
      "tags": {
        "amenity": "place_of_worship",
        "name": "Mosquee de Ismaela djalingo",
        "religion": "muslim",
        "source": "ACAGER - OSM_Cameroon"
      }
    },
    {
      "type": "node",
      "id": 5934688965,
      "lat": 7.2923514,
      "lon": 13.6044877,
      "tags": {
        "amenity": "place_of_worship",
        "name": "mosquee",
        "religion": "muslim",
        "source": "ACAGER - OSM_Cameroon"
      }
    },
    {
      "type": "node",
      "id": 5934688969,
      "lat": 7.3033109,
      "lon": 13.5817001,
      "tags": {
        "amenity": "place_of_worship",
        "name": "mosquee Al Aziz",
        "religion": "muslim",
        "source": "ACAGER - OSM_Cameroon"
      }
    },
    {
      "type": "node",
      "id": 5934688973,
      "lat": 7.3025166,
      "lon": 13.5831975,
      "tags": {
        "amenity": "place_of_worship",
        "name": "mosquee",
        "religion": "muslim",
        "source": "ACAGER - OSM_Cameroon"
      }
    },
    {
      "type": "node",
      "id": 5934688977,
      "lat": 7.360357,
      "lon": 13.5799169,
      "tags": {
        "amenity": "place_of_worship",
        "name": "Mosquee forage de la mairie",
        "religion": "muslim",
        "source": "ACAGER - OSM_Cameroon"
      }
    },
    {
      "type": "node",
      "id": 5934688979,
      "lat": 7.3599445,
      "lon": 13.581949,
      "tags": {
        "amenity": "place_of_worship",
        "name": "Mosquee Mamoudou",
        "religion": "muslim",
        "source": "ACAGER - OSM_Cameroon"
      }
    },
    {
      "type": "node",
      "id": 5934688980,
      "lat": 7.3431866,
      "lon": 13.5804191,
      "tags": {
        "amenity": "place_of_worship",
        "name": "Mosquee grand debor",
        "religion": "muslim",
        "source": "ACAGER - OSM_Cameroon"
      }
    },
    {
      "type": "node",
      "id": 5934689002,
      "lat": 7.3377501,
      "lon": 13.5889728,
      "tags": {
        "amenity": "place_of_worship",
        "name": "Mosquee Alahdji abbo de la gare",
        "religion": "muslim",
        "source": "ACAGER - OSM_Cameroon"
      }
    },
    {
      "type": "node",
      "id": 5934689007,
      "lat": 7.3552552,
      "lon": 13.5864321,
      "tags": {
        "amenity": "place_of_worship",
        "name": "Mosquee Alahdji Ardo de Gada",
        "religion": "muslim",
        "source": "ACAGER - OSM_Cameroon"
      }
    },
    {
      "type": "node",
      "id": 5934689009,
      "lat": 7.2826715,
      "lon": 13.570192,
      "tags": {
        "amenity": "place_of_worship",
        "fixme": "Bamyanga marza",
        "name": "Mosqué al Rahma",
        "religion": "muslim",
        "source": "ACAGER - OSM_Cameroon"
      }
    },
    {
      "type": "node",
      "id": 5934689010,
      "lat": 7.356974,
      "lon": 13.5845271,
      "tags": {
        "amenity": "place_of_worship",
        "name": "Mosquee mama fande",
        "religion": "muslim",
        "source": "ACAGER - OSM_Cameroon"
      }
    },
    {
      "type": "node",
      "id": 5934689014,
      "lat": 7.305413,
      "lon": 13.5780129,
      "tags": {
        "amenity": "place_of_worship",
        "name": "Bamyanga centre",
        "religion": "muslim",
        "source": "ACAGER - OSM_Cameroon"
      }
    },
    {
      "type": "node",
      "id": 5934689020,
      "lat": 7.3640243,
      "lon": 13.5820783,
      "tags": {
        "amenity": "place_of_worship",
        "name": "Mosquee Bakari de Kalmet",
        "religion": "muslim",
        "source": "ACAGER - OSM_Cameroon"
      }
    },
    {
      "type": "node",
      "id": 5934689022,
      "lat": 7.35262,
      "lon": 13.5849034,
      "tags": {
        "amenity": "place_of_worship",
        "name": "Mosquee hamadjoda",
        "religion": "muslim",
        "source": "ACAGER - OSM_Cameroon"
      }
    },
    {
      "type": "node",
      "id": 5934689026,
      "lat": 7.3556027,
      "lon": 13.5940895,
      "tags": {
        "amenity": "place_of_worship",
        "name": "Mosquee Malam Hamane",
        "religion": "muslim",
        "source": "ACAGER - OSM_Cameroon"
      }
    },
    {
      "type": "node",
      "id": 5934689028,
      "lat": 7.358203,
      "lon": 13.5891768,
      "tags": {
        "amenity": "place_of_worship",
        "fixme": "Gada-mabanga",
        "name": "Mosquee Aladji Dibril",
        "religion": "muslim",
        "source": "ACAGER - OSM_Cameroon"
      }
    },
    {
      "type": "node",
      "id": 5934689030,
      "lat": 7.3456294,
      "lon": 13.5898873,
      "tags": {
        "amenity": "place_of_worship",
        "name": "Mosquee de Ba kaygama djaouro de djalingo",
        "religion": "muslim",
        "source": "ACAGER - OSM_Cameroon"
      }
    },
    {
      "type": "node",
      "id": 5934689033,
      "lat": 7.3600446,
      "lon": 13.5774878,
      "tags": {
        "amenity": "place_of_worship",
        "name": "Mosquee de modibo mainama de Kalmet",
        "religion": "muslim",
        "source": "ACAGER - OSM_Cameroon"
      }
    },
    {
      "type": "node",
      "id": 5934689045,
      "lat": 7.3571898,
      "lon": 13.5823284,
      "tags": {
        "amenity": "place_of_worship",
        "name": "Mosquee Bouba Ngoura de Gada-mabanga",
        "religion": "muslim",
        "source": "ACAGER - OSM_Cameroon"
      }
    },
    {
      "type": "node",
      "id": 5934689051,
      "lat": 7.3544936,
      "lon": 13.581626,
      "tags": {
        "amenity": "place_of_worship",
        "name": "Mosquee hama tihi de gada-mabanga",
        "religion": "muslim",
        "source": "ACAGER - OSM_Cameroon"
      }
    },
    {
      "type": "node",
      "id": 5934689052,
      "lat": 7.3202531,
      "lon": 13.5796679,
      "tags": {
        "amenity": "place_of_worship",
        "name": "Issa santi",
        "religion": "muslim",
        "source": "ACAGER - OSM_Cameroon"
      }
    },
    {
      "type": "node",
      "id": 5934689057,
      "lat": 7.2907571,
      "lon": 13.5770481,
      "tags": {
        "amenity": "place_of_worship",
        "name": "Mosqué El hadj bapetel",
        "religion": "muslim",
        "source": "ACAGER - OSM_Cameroon"
      }
    },
    {
      "type": "node",
      "id": 5934689059,
      "lat": 7.2936736,
      "lon": 13.5813058,
      "tags": {
        "amenity": "place_of_worship",
        "name": "Mosquee RAHMA",
        "religion": "muslim",
        "source": "ACAGER - OSM_Cameroon"
      }
    },
    {
      "type": "node",
      "id": 5934689065,
      "lat": 7.293473,
      "lon": 13.582232,
      "tags": {
        "amenity": "place_of_worship",
        "name": "Mosquee",
        "religion": "muslim",
        "source": "ACAGER - OSM_Cameroon"
      }
    },
    {
      "type": "node",
      "id": 5934689066,
      "lat": 7.2982455,
      "lon": 13.5890483,
      "tags": {
        "amenity": "place_of_worship",
        "name": "Mosquee",
        "religion": "muslim",
        "source": "ACAGER - OSM_Cameroon"
      }
    },
    {
      "type": "node",
      "id": 5934689068,
      "lat": 7.2940033,
      "lon": 13.5829616,
      "tags": {
        "amenity": "place_of_worship",
        "name": "Mosquee",
        "religion": "muslim",
        "source": "ACAGER - OSM_Cameroon"
      }
    },
    {
      "type": "node",
      "id": 5934689070,
      "lat": 7.324714,
      "lon": 13.6013992,
      "tags": {
        "amenity": "place_of_worship",
        "name": "Mosquee carrefour Ma'a patou",
        "religion": "muslim",
        "source": "ACAGER - OSM_Cameroon"
      }
    },
    {
      "type": "node",
      "id": 5934689073,
      "lat": 7.2850905,
      "lon": 13.5785587,
      "tags": {
        "amenity": "place_of_worship",
        "name": "Mosqué tapare",
        "religion": "muslim",
        "source": "ACAGER - OSM_Cameroon"
      }
    },
    {
      "type": "node",
      "id": 5934689074,
      "lat": 7.3309991,
      "lon": 13.602113,
      "tags": {
        "amenity": "place_of_worship",
        "name": "Mosquee",
        "religion": "muslim",
        "source": "ACAGER - OSM_Cameroon"
      }
    },
    {
      "type": "node",
      "id": 5934689075,
      "lat": 7.2881434,
      "lon": 13.574531,
      "tags": {
        "amenity": "place_of_worship",
        "name": "Mosqué marza 2",
        "religion": "muslim",
        "source": "ACAGER - OSM_Cameroon"
      }
    },
    {
      "type": "node",
      "id": 5934689076,
      "lat": 7.2897697,
      "lon": 13.5863839,
      "tags": {
        "amenity": "place_of_worship",
        "name": "Mosqué marza",
        "religion": "muslim",
        "source": "ACAGER - OSM_Cameroon"
      }
    },
    {
      "type": "node",
      "id": 5934689079,
      "lat": 7.2863182,
      "lon": 13.5754934,
      "tags": {
        "amenity": "place_of_worship",
        "name": "Mosqué oustas Balla",
        "religion": "muslim",
        "source": "ACAGER - OSM_Cameroon"
      }
    },
    {
      "type": "node",
      "id": 5934689081,
      "lat": 7.3566175,
      "lon": 13.5896305,
      "tags": {
        "amenity": "place_of_worship",
        "name": "Mosquee de la chefferie",
        "religion": "muslim",
        "source": "ACAGER - OSM_Cameroon"
      }
    },
    {
      "type": "node",
      "id": 5934689104,
      "lat": 7.3596488,
      "lon": 13.5767536,
      "tags": {
        "amenity": "place_of_worship",
        "name": "Mosquee modibo bouba de Kalmet",
        "religion": "muslim",
        "source": "ACAGER - OSM_Cameroon"
      }
    },
    {
      "type": "node",
      "id": 5934689106,
      "lat": 7.3030013,
      "lon": 13.591482,
      "tags": {
        "amenity": "place_of_worship",
        "name": "mosquee wamy",
        "religion": "muslim",
        "source": "ACAGER - OSM_Cameroon"
      }
    },
    {
      "type": "node",
      "id": 5934689109,
      "lat": 7.3180658,
      "lon": 13.5841875,
      "tags": {
        "amenity": "place_of_worship",
        "fixme": "mbideng",
        "name": "mosquee bobo aldjana",
        "religion": "muslim",
        "source": "ACAGER - OSM_Cameroon"
      }
    },
    {
      "type": "node",
      "id": 5934689113,
      "lat": 7.3043623,
      "lon": 13.5935522,
      "tags": {
        "amenity": "place_of_worship",
        "name": "mosquee bobo aldjana 8",
        "religion": "muslim",
        "source": "ACAGER - OSM_Cameroon"
      }
    },
    {
      "type": "node",
      "id": 5934689114,
      "lat": 7.3064589,
      "lon": 13.5904597,
      "tags": {
        "amenity": "place_of_worship",
        "name": "mosquee elhadj balewa",
        "religion": "muslim",
        "source": "ACAGER - OSM_Cameroon"
      }
    },
    {
      "type": "node",
      "id": 5934689116,
      "lat": 7.313073,
      "lon": 13.5925286,
      "tags": {
        "amenity": "place_of_worship",
        "name": "mosquee",
        "religion": "muslim",
        "source": "ACAGER - OSM_Cameroon"
      }
    },
    {
      "type": "node",
      "id": 5934689118,
      "lat": 7.3104612,
      "lon": 13.5999334,
      "tags": {
        "amenity": "place_of_worship",
        "name": "mosquee",
        "religion": "muslim",
        "source": "ACAGER - OSM_Cameroon"
      }
    },
    {
      "type": "node",
      "id": 5934689122,
      "lat": 7.3083695,
      "lon": 13.5988928,
      "tags": {
        "amenity": "place_of_worship",
        "name": "mosquee",
        "religion": "muslim",
        "source": "ACAGER - OSM_Cameroon"
      }
    },
    {
      "type": "node",
      "id": 5934689125,
      "lat": 7.3437352,
      "lon": 13.590932,
      "tags": {
        "amenity": "place_of_worship",
        "name": "Mosquee marche djalingo",
        "religion": "muslim",
        "source": "ACAGER - OSM_Cameroon"
      }
    },
    {
      "type": "node",
      "id": 5934689126,
      "lat": 7.343746,
      "lon": 13.5938195,
      "tags": {
        "amenity": "place_of_worship",
        "name": "Mosquee de alahdji youssoufa",
        "religion": "muslim",
        "source": "ACAGER - OSM_Cameroon"
      }
    },
    {
      "type": "node",
      "id": 5934689129,
      "lat": 7.2932489,
      "lon": 13.5865985,
      "tags": {
        "amenity": "place_of_worship",
        "name": "Mosquee",
        "religion": "muslim",
        "source": "ACAGER - OSM_Cameroon"
      }
    },
    {
      "type": "node",
      "id": 5934689130,
      "lat": 7.3434764,
      "lon": 13.5956139,
      "tags": {
        "amenity": "place_of_worship",
        "name": "Mosquee alahdji daouda de djalingo tella",
        "religion": "muslim",
        "source": "ACAGER - OSM_Cameroon"
      }
    },
    {
      "type": "node",
      "id": 5934689132,
      "lat": 7.3433399,
      "lon": 13.5978253,
      "tags": {
        "amenity": "place_of_worship",
        "name": "Mosquee djalingo tella",
        "religion": "muslim",
        "source": "ACAGER - OSM_Cameroon"
      }
    },
    {
      "type": "node",
      "id": 5934689136,
      "lat": 7.299954,
      "lon": 13.5814184,
      "tags": {
        "amenity": "place_of_worship",
        "name": "Mosquee",
        "religion": "muslim",
        "source": "ACAGER - OSM_Cameroon"
      }
    },
    {
      "type": "node",
      "id": 5934689137,
      "lat": 7.2943787,
      "lon": 13.5888293,
      "tags": {
        "amenity": "place_of_worship",
        "name": "Mosquee",
        "religion": "muslim",
        "source": "ACAGER - OSM_Cameroon"
      }
    },
    {
      "type": "node",
      "id": 5934689142,
      "lat": 7.3055404,
      "lon": 13.5993584,
      "tags": {
        "amenity": "place_of_worship",
        "name": "Mosquee",
        "religion": "muslim",
        "source": "ACAGER - OSM_Cameroon"
      }
    },
    {
      "type": "node",
      "id": 5934689147,
      "lat": 7.2977314,
      "lon": 13.5985734,
      "tags": {
        "amenity": "place_of_worship",
        "name": "mosquee",
        "religion": "muslim",
        "source": "ACAGER - OSM_Cameroon"
      }
    },
    {
      "type": "node",
      "id": 5934689149,
      "lat": 7.2997304,
      "lon": 13.5974464,
      "tags": {
        "amenity": "place_of_worship",
        "name": "mosquee",
        "religion": "muslim",
        "source": "ACAGER - OSM_Cameroon"
      }
    },
    {
      "type": "node",
      "id": 9370839754,
      "lat": 7.2826782,
      "lon": 13.5702395,
      "tags": {
        "amenity": "place_of_worship",
        "name": "Mosqué al Rahma",
        "religion": "muslim",
        "source": "ACAGER - OSM_Cameroon"
      }
    },
    {
      "type": "way",
      "id": 364923827,
      "center": {
        "lat": 6.2078319,
        "lon": 10.6887181
      },
      "tags": {
        "amenity": "place_of_worship",
        "building": "yes",
        "denomination": "presbyterian",
        "name": "Presbiterian Church Kumbo",
        "name:fr": "Église Presbytérienne de Kumbo",
        "religion": "muslim"
      },
      "lat": 6.2078319,
      "lon": 10.6887181
    },
    {
      "type": "way",
      "id": 364950892,
      "center": {
        "lat": 6.2133834,
        "lon": 10.6789519
      },
      "tags": {
        "amenity": "place_of_worship",
        "building": "yes",
        "name": "Masjid Mve",
        "name:fr": "Mosquée de Mve",
        "religion": "muslim"
      },
      "lat": 6.2133834,
      "lon": 10.6789519
    },
    {
      "type": "way",
      "id": 375408667,
      "center": {
        "lat": 4.5757014,
        "lon": 13.6972865
      },
      "tags": {
        "amenity": "place_of_worship",
        "denomination": "muslim",
        "name": "Lieu de prière de grand évènement",
        "religion": "muslim",
        "wheelchair": "yes"
      },
      "lat": 4.5757014,
      "lon": 13.6972865
    },
    {
      "type": "way",
      "id": 401949917,
      "center": {
        "lat": 5.9562496,
        "lon": 10.1568503
      },
      "tags": {
        "amenity": "place_of_worship",
        "building": "yes",
        "name": "Central Mosque",
        "name:fr": "Mosquée Centrale",
        "religion": "muslim"
      },
      "lat": 5.9562496,
      "lon": 10.1568503
    },
    {
      "type": "way",
      "id": 425278667,
      "center": {
        "lat": 5.4662964,
        "lon": 10.4163249
      },
      "tags": {
        "amenity": "place_of_worship",
        "name": "Mosquee de Banengo",
        "religion": "muslim"
      },
      "lat": 5.4662964,
      "lon": 10.4163249
    },
    {
      "type": "way",
      "id": 1113591290,
      "center": {
        "lat": 5.6797451,
        "lon": 10.517243
      },
      "tags": {
        "amenity": "place_of_worship",
        "building": "mosque",
        "name": "Mosqquée Mbagnam",
        "opening_hours": "24/7",
        "religion": "muslim"
      },
      "lat": 5.6797451,
      "lon": 10.517243
    },
    {
      "type": "node",
      "id": 501503239,
      "lat": 10.2100034,
      "lon": 11.386921,
      "tags": {
        "GNS:dsg_code": "PPL",
        "GNS:dsg_string": "populated place",
        "GNS:id": "-2004779",
        "amenity": "place_of_worship",
        "is_in:country": "Nigeria",
        "name": "Deba",
        "religion": "muslim",
        "source": "GNS",
        "wikidata": "Q5247803"
      }
    },
    {
      "type": "node",
      "id": 1049493807,
      "lat": 9.6039411,
      "lon": 13.7142813,
      "tags": {
        "amenity": "place_of_worship",
        "name": "Mosque de Babanguel I",
        "religion": "muslim"
      }
    },
    {
      "type": "node",
      "id": 1049705899,
      "lat": 9.4923852,
      "lon": 13.6794091,
      "tags": {
        "amenity": "place_of_worship",
        "name": "Grand Mosque de Mbor",
        "religion": "muslim"
      }
    },
    {
      "type": "node",
      "id": 1049706008,
      "lat": 9.5125142,
      "lon": 13.7322701,
      "tags": {
        "amenity": "place_of_worship",
        "name": "Mosque de Mayo Libri",
        "religion": "muslim"
      }
    },
    {
      "type": "node",
      "id": 1049716150,
      "lat": 9.4220802,
      "lon": 13.6447739,
      "tags": {
        "amenity": "place_of_worship",
        "name": "Mosque de Wouro Bocki",
        "religion": "muslim"
      }
    },
    {
      "type": "node",
      "id": 1049849564,
      "lat": 9.4103146,
      "lon": 13.6570499,
      "tags": {
        "amenity": "place_of_worship",
        "name": "Mosque de Foui",
        "religion": "muslim"
      }
    },
    {
      "type": "node",
      "id": 1050198344,
      "lat": 9.3932318,
      "lon": 13.7106339,
      "tags": {
        "amenity": "place_of_worship",
        "name": "Mosque de Louegero",
        "religion": "muslim"
      }
    },
    {
      "type": "node",
      "id": 1050198356,
      "lat": 9.3917761,
      "lon": 13.7045655,
      "tags": {
        "amenity": "place_of_worship",
        "name": "Mosque de Babaye",
        "religion": "muslim"
      }
    },
    {
      "type": "node",
      "id": 1067300968,
      "lat": 9.3796337,
      "lon": 13.4569321,
      "tags": {
        "amenity": "place_of_worship",
        "name": "Mosque de Mberi",
        "religion": "muslim"
      }
    },
    {
      "type": "node",
      "id": 1067301000,
      "lat": 9.3975844,
      "lon": 13.3782482,
      "tags": {
        "amenity": "place_of_worship",
        "name": "Grand Mosque de Tinguelin",
        "religion": "muslim"
      }
    },
    {
      "type": "node",
      "id": 1067301012,
      "lat": 9.4020604,
      "lon": 13.3789361,
      "tags": {
        "amenity": "place_of_worship",
        "name": "Mosque de tinguelin",
        "religion": "muslim"
      }
    },
    {
      "type": "node",
      "id": 1067301037,
      "lat": 9.329803,
      "lon": 13.5775552,
      "tags": {
        "amenity": "place_of_worship",
        "name": "Mosque de Bouli Mal Alim",
        "religion": "muslim"
      }
    },
    {
      "type": "node",
      "id": 1067301039,
      "lat": 9.4598674,
      "lon": 13.5069508,
      "tags": {
        "amenity": "place_of_worship",
        "name": "Mosque de Banaye",
        "religion": "muslim"
      }
    },
    {
      "type": "node",
      "id": 1067301062,
      "lat": 9.5808055,
      "lon": 13.6206448,
      "tags": {
        "amenity": "place_of_worship",
        "name": "Mosque de Pene",
        "religion": "muslim"
      }
    },
    {
      "type": "node",
      "id": 1067301064,
      "lat": 9.4193827,
      "lon": 13.4802642,
      "tags": {
        "amenity": "place_of_worship",
        "name": "Mosque de Boulgou",
        "religion": "muslim"
      }
    },
    {
      "type": "node",
      "id": 1067304083,
      "lat": 9.355682,
      "lon": 13.5645838,
      "tags": {
        "amenity": "place_of_worship",
        "name": "Mosque de Mbora",
        "religion": "muslim"
      }
    },
    {
      "type": "node",
      "id": 1067304102,
      "lat": 9.4405078,
      "lon": 13.5751822,
      "tags": {
        "amenity": "place_of_worship",
        "name": "Mosque de Ouro Bouba Ampte",
        "religion": "muslim"
      }
    },
    {
      "type": "node",
      "id": 1067304109,
      "lat": 9.3814599,
      "lon": 13.5217187,
      "tags": {
        "amenity": "place_of_worship",
        "name": "Mosque de Doumde Godouji",
        "religion": "muslim"
      }
    },
    {
      "type": "node",
      "id": 1067304125,
      "lat": 9.4724589,
      "lon": 13.5388216,
      "tags": {
        "amenity": "place_of_worship",
        "name": "Mosque de Kirombo",
        "religion": "muslim"
      }
    },
    {
      "type": "node",
      "id": 1067304136,
      "lat": 9.4008604,
      "lon": 13.589992,
      "tags": {
        "amenity": "place_of_worship",
        "name": "Mosque de Guidijaro",
        "religion": "muslim"
      }
    },
    {
      "type": "node",
      "id": 1067304137,
      "lat": 9.4303594,
      "lon": 13.5678515,
      "tags": {
        "amenity": "place_of_worship",
        "name": "Mosque de Ouro Baeka",
        "religion": "muslim"
      }
    },
    {
      "type": "node",
      "id": 1067304181,
      "lat": 9.4357615,
      "lon": 13.5835414,
      "tags": {
        "amenity": "place_of_worship",
        "name": "Mosque de Central de Djimetta Dolla",
        "religion": "muslim"
      }
    },
    {
      "type": "node",
      "id": 1067304243,
      "lat": 9.3715534,
      "lon": 13.5382299,
      "tags": {
        "amenity": "place_of_worship",
        "name": "Mosque de Nguebeke",
        "religion": "muslim"
      }
    },
    {
      "type": "node",
      "id": 1067306200,
      "lat": 9.3964446,
      "lon": 13.4986129,
      "tags": {
        "amenity": "place_of_worship",
        "name": "Mosque de Djantare",
        "religion": "muslim"
      }
    },
    {
      "type": "node",
      "id": 1067306268,
      "lat": 9.4037153,
      "lon": 13.5110668,
      "tags": {
        "amenity": "place_of_worship",
        "name": "Mosque de Dolere I",
        "religion": "muslim"
      }
    },
    {
      "type": "node",
      "id": 1067306319,
      "lat": 9.3875016,
      "lon": 13.5062895,
      "tags": {
        "amenity": "place_of_worship",
        "name": "Grand Mosque de Pitoa",
        "religion": "muslim"
      }
    },
    {
      "type": "node",
      "id": 1067306376,
      "lat": 9.3893364,
      "lon": 13.503523,
      "tags": {
        "amenity": "place_of_worship",
        "name": "Mosque de Pitoa",
        "religion": "muslim"
      }
    },
    {
      "type": "node",
      "id": 1905592970,
      "lat": 9.9601145,
      "lon": 8.8890892,
      "tags": {
        "addr:city": "Jos",
        "addr:street": "Naraguta Road",
        "amenity": "place_of_worship",
        "description": "Muslim Mosque Along Naraguta Road Jos",
        "name": "Muslim Mosque",
        "religion": "muslim",
        "source": "Bing"
      }
    },
    {
      "type": "node",
      "id": 3808460957,
      "lat": 11.9716453,
      "lon": 8.5327677,
      "tags": {
        "addr:city": "Kano",
        "addr:postcode": "700224",
        "addr:street": "Zoo Road",
        "amenity": "place_of_worship",
        "denomination": "sunni",
        "name": "SKY Masjid",
        "religion": "muslim",
        "source": "steadfast.com.ng"
      }
    },
    {
      "type": "node",
      "id": 3808548422,
      "lat": 11.9693891,
      "lon": 8.5314302,
      "tags": {
        "addr:city": "Kano",
        "addr:postcode": "700224",
        "addr:street": "Zoo Road",
        "amenity": "place_of_worship",
        "denomination": "sunni",
        "name": "Masjid",
        "religion": "muslim",
        "source": "steadfast.com.ng"
      }
    },
    {
      "type": "node",
      "id": 3808579357,
      "lat": 11.980341,
      "lon": 8.5398596,
      "tags": {
        "addr:street": "Zaria Road",
        "amenity": "place_of_worship",
        "denomination": "sunni",
        "name": "Umar Bin Khattab",
        "religion": "muslim",
        "source": "steadfast.com.ng"
      }
    },
    {
      "type": "node",
      "id": 3812578249,
      "lat": 11.9714588,
      "lon": 8.5316242,
      "tags": {
        "addr:city": "Gandu Albasa",
        "addr:street": "Liman Muhammad Street",
        "amenity": "place_of_worship",
        "denomination": "sunni",
        "name": "ZHERA Masjid",
        "religion": "muslim",
        "source": "steadfast.com.ng"
      }
    },
    {
      "type": "node",
      "id": 4311479959,
      "lat": 13.8070477,
      "lon": 8.9949024,
      "tags": {
        "amenity": "place_of_worship",
        "name": "Mosqué Elhadji Warssou",
        "project:pdevii": "yes",
        "religion": "muslim",
        "source": "survey"
      }
    },
    {
      "type": "node",
      "id": 4316032630,
      "lat": 13.8133033,
      "lon": 8.9971247,
      "tags": {
        "amenity": "place_of_worship",
        "name": "Mosqué Garin Malam",
        "project:pdevii": "yes",
        "religion": "muslim",
        "source": "survey"
      }
    },
    {
      "type": "node",
      "id": 4508898791,
      "lat": 13.8257148,
      "lon": 8.9838889,
      "tags": {
        "addr:housenumber": "Elh Saley me KARAHUNA",
        "addr:street": "pavé CEG2 face de chez Elh Saley me karahuna",
        "amenity": "place_of_worship",
        "email": "lawan222@gmail.com",
        "name": "Markaz Salahouddine",
        "opening_hours": "24/7",
        "phone": "+22799225686",
        "religion": "muslim"
      }
    },
    {
      "type": "node",
      "id": 4515252963,
      "lat": 11.9887384,
      "lon": 8.5212488,
      "tags": {
        "addr:city": "Kan Karofi",
        "addr:street": "Emir Palace Road",
        "amenity": "place_of_worship",
        "name": "Massalacin wudilawa",
        "religion": "muslim"
      }
    },
    {
      "type": "node",
      "id": 4515423946,
      "lat": 12.0016121,
      "lon": 8.5190888,
      "tags": {
        "addr:housenumber": "Yolawa",
        "addr:street": "Municipal",
        "amenity": "place_of_worship",
        "denomination": "sunni",
        "description": "Yola settlement is in chedi ward under kano municipal",
        "name": "Yolawa, masallacin madaki",
        "religion": "muslim"
      }
    },
    {
      "type": "node",
      "id": 5604720187,
      "lat": 11.8147045,
      "lon": 13.1529688,
      "tags": {
        "amenity": "place_of_worship",
        "name": "Alansar mosque",
        "religion": "muslim"
      }
    },
    {
      "type": "node",
      "id": 6691366181,
      "lat": 9.362131,
      "lon": 13.3907678,
      "tags": {
        "amenity": "place_of_worship",
        "denomination": "sunni",
        "name": "Mosquee",
        "religion": "muslim"
      }
    },
    {
      "type": "node",
      "id": 6691372988,
      "lat": 9.358286,
      "lon": 13.3602781,
      "tags": {
        "amenity": "place_of_worship",
        "denomination": "sunni",
        "name": "Mosquee",
        "religion": "muslim"
      }
    },
    {
      "type": "node",
      "id": 6691372990,
      "lat": 9.3557364,
      "lon": 13.3622115,
      "tags": {
        "amenity": "place_of_worship",
        "denomination": "sunni",
        "name": "Mosquee",
        "religion": "muslim"
      }
    },
    {
      "type": "node",
      "id": 6691372991,
      "lat": 9.3530285,
      "lon": 13.3619993,
      "tags": {
        "amenity": "place_of_worship",
        "denomination": "sunni",
        "name": "Mosquee",
        "religion": "muslim"
      }
    },
    {
      "type": "node",
      "id": 6691372996,
      "lat": 9.345601,
      "lon": 13.3616828,
      "tags": {
        "amenity": "place_of_worship",
        "denomination": "sunni",
        "name": "Mosquee",
        "religion": "muslim"
      }
    },
    {
      "type": "node",
      "id": 6691373026,
      "lat": 9.3247376,
      "lon": 13.386702,
      "tags": {
        "amenity": "place_of_worship",
        "denomination": "sunni",
        "name": "Mosquee",
        "religion": "muslim"
      }
    },
    {
      "type": "node",
      "id": 6691373028,
      "lat": 9.3132916,
      "lon": 13.3737463,
      "tags": {
        "amenity": "place_of_worship",
        "denomination": "sunni",
        "name": "Mosquee",
        "religion": "muslim"
      }
    },
    {
      "type": "node",
      "id": 6691373031,
      "lat": 9.3077093,
      "lon": 13.3958691,
      "tags": {
        "amenity": "place_of_worship",
        "denomination": "sunni",
        "name": "مسجد",
        "name:ar": "مسجد",
        "religion": "muslim"
      }
    },
    {
      "type": "node",
      "id": 6691373077,
      "lat": 9.3002569,
      "lon": 13.3823401,
      "tags": {
        "amenity": "place_of_worship",
        "denomination": "sunni",
        "name": "Mosquee",
        "religion": "muslim"
      }
    },
    {
      "type": "node",
      "id": 6691373078,
      "lat": 9.3015331,
      "lon": 13.3810236,
      "tags": {
        "amenity": "place_of_worship",
        "denomination": "sunni",
        "name": "Mosquee",
        "religion": "muslim"
      }
    },
    {
      "type": "node",
      "id": 6691373079,
      "lat": 9.3018995,
      "lon": 13.3837615,
      "tags": {
        "amenity": "place_of_worship",
        "denomination": "sunni",
        "name": "Mosquee",
        "religion": "muslim"
      }
    },
    {
      "type": "node",
      "id": 6691373082,
      "lat": 9.3014912,
      "lon": 13.378925,
      "tags": {
        "amenity": "place_of_worship",
        "denomination": "sunni",
        "name": "Mosquee",
        "religion": "muslim"
      }
    },
    {
      "type": "node",
      "id": 6691373088,
      "lat": 9.304721,
      "lon": 13.3778768,
      "tags": {
        "amenity": "place_of_worship",
        "denomination": "sunni",
        "name": "Mosquee",
        "religion": "muslim"
      }
    },
    {
      "type": "node",
      "id": 6691373091,
      "lat": 9.3026437,
      "lon": 13.36784,
      "tags": {
        "amenity": "place_of_worship",
        "denomination": "sunni",
        "name": "Mousque Du Lamida Wouro Kanadi",
        "religion": "muslim"
      }
    },
    {
      "type": "node",
      "id": 6771675204,
      "lat": 9.307368,
      "lon": 13.3996709,
      "tags": {
        "amenity": "place_of_worship",
        "name": "Point De Priere",
        "religion": "muslim"
      }
    },
    {
      "type": "node",
      "id": 6771802707,
      "lat": 9.3625222,
      "lon": 13.4060937,
      "tags": {
        "amenity": "place_of_worship",
        "name": "Mosquee",
        "religion": "muslim"
      }
    },
    {
      "type": "node",
      "id": 6771802708,
      "lat": 9.3595952,
      "lon": 13.3884126,
      "tags": {
        "amenity": "place_of_worship",
        "name": "Mosquee",
        "religion": "muslim"
      }
    },
    {
      "type": "node",
      "id": 6771802709,
      "lat": 9.3594786,
      "lon": 13.3916652,
      "tags": {
        "amenity": "place_of_worship",
        "name": "Mosquee",
        "religion": "muslim"
      }
    },
    {
      "type": "node",
      "id": 6771802713,
      "lat": 9.3577959,
      "lon": 13.3934127,
      "tags": {
        "amenity": "place_of_worship",
        "name": "Mosquee",
        "religion": "muslim"
      }
    },
    {
      "type": "node",
      "id": 6771802714,
      "lat": 9.360904,
      "lon": 13.3974494,
      "tags": {
        "amenity": "place_of_worship",
        "name": "Mosquee",
        "religion": "muslim"
      }
    },
    {
      "type": "node",
      "id": 7252703486,
      "lat": 10.3057325,
      "lon": 11.1755535,
      "tags": {
        "amenity": "place_of_worship",
        "denomination": "sunni",
        "name": "male old hostel Mosques",
        "religion": "muslim"
      }
    },
    {
      "type": "node",
      "id": 7301626286,
      "lat": 10.2880777,
      "lon": 11.1602454,
      "tags": {
        "amenity": "place_of_worship",
        "name": "Alhaji Baba Mosque",
        "religion": "muslim"
      }
    },
    {
      "type": "node",
      "id": 7301626287,
      "lat": 10.28804,
      "lon": 11.1610031,
      "tags": {
        "amenity": "place_of_worship",
        "name": "Bello Doma Mosque",
        "religion": "muslim"
      }
    },
    {
      "type": "node",
      "id": 7341063686,
      "lat": 10.2855559,
      "lon": 11.1846351,
      "tags": {
        "amenity": "place_of_worship",
        "name": "Late. Alh. Mamman Muri Mosque.",
        "religion": "muslim"
      }
    },
    {
      "type": "node",
      "id": 7820498018,
      "lat": 9.3442868,
      "lon": 12.5126952,
      "tags": {
        "addr:city": "ADAMAWA",
        "addr:lga": "GIREI",
        "amenity": "place_of_worship",
        "name": "SEGERE DUTSE MOSQUE",
        "religion": "muslim"
      }
    },
    {
      "type": "node",
      "id": 7823338287,
      "lat": 9.9953629,
      "lon": 13.2155664,
      "tags": {
        "amenity": "place_of_worship",
        "crossing": "marked",
        "name": "mosque",
        "religion": "muslim"
      }
    },
    {
      "type": "node",
      "id": 8465116105,
      "lat": 10.9176341,
      "lon": 11.4832956,
      "tags": {
        "amenity": "place_of_worship",
        "name": "Mosque",
        "religion": "muslim"
      }
    },
    {
      "type": "node",
      "id": 8815034575,
      "lat": 10.3057907,
      "lon": 11.1753289,
      "tags": {
        "amenity": "place_of_worship",
        "denomination": "sunni",
        "name": "female mosque",
        "religion": "muslim"
      }
    },
    {
      "type": "node",
      "id": 9004696939,
      "lat": 11.818217,
      "lon": 13.1424908,
      "tags": {
        "amenity": "place_of_worship",
        "name": "Indimi Mosque",
        "religion": "muslim"
      }
    },
    {
      "type": "node",
      "id": 9042639287,
      "lat": 11.8274523,
      "lon": 13.1056016,
      "tags": {
        "addr:city": "Maiduguri",
        "addr:street": "Jallaba street",
        "amenity": "place_of_worship",
        "name": "sheik Abul Fathi",
        "religion": "muslim"
      }
    },
    {
      "type": "node",
      "id": 9768989043,
      "lat": 9.9657683,
      "lon": 8.848985,
      "tags": {
        "addr:city": "Jos",
        "amenity": "place_of_worship",
        "name": "Central Mosque Na kwanan Soja",
        "religion": "muslim"
      }
    },