{"source": "overpass_api", "category": "water_borehole", "quad": "sw", "retrieved_at": "2026-04-22", "total_elements": 100, "named_elements": 100, "elements": [{"type": "node", "id": 1992390237, "lat": 6.3605247, "lon": 5.6242056, "tags": {"man_made": "water_tower", "name": "Okhoro Reservoir"}}, {"type": "node", "id": 2152973406, "lat": 6.3292623, "lon": 5.6280415, "tags": {"man_made": "water_tower", "name": "Community Bore Hole"}}, {"type": "node", "id": 2152973410, "lat": 6.3344252, "lon": 5.6326277, "tags": {"man_made": "water_well", "name": "Community Bore Hole"}}, {"type": "node", "id": 2154537232, "lat": 6.3343043, "lon": 5.6342271, "tags": {"man_made": "water_tower", "name": "Community Bore Hole"}}, {"type": "node", "id": 2161073403, "lat": 6.3341435, "lon": 5.6180453, "tags": {"man_made": "water_tower", "name": "Public Borehole"}}, {"type": "node", "id": 2344220899, "lat": 6.3412459, "lon": 5.6010451, "tags": {"man_made": "water_tower", "name": "Public Bore Hole"}}, {"type": "node", "id": 2344220902, "lat": 6.3421052, "lon": 5.6009755, "tags": {"man_made": "water_tower", "name": "Public Bore Hole"}}, {"type": "node", "id": 2344258128, "lat": 6.3388935, "lon": 5.6111291, "tags": {"man_made": "water_tower", "name": "Community Borehole"}}, {"type": "node", "id": 2344280076, "lat": 6.3366815, "lon": 5.6062031, "tags": {"man_made": "water_tower", "name": "Public Bolehole"}}, {"type": "node", "id": 2344328609, "lat": 6.3451989, "lon": 5.5975864, "tags": {"man_made": "water_tower", "name": "public bore hole"}}, {"type": "node", "id": 2344414240, "lat": 6.336483, "lon": 5.6057001, "tags": {"man_made": "water_tower", "name": "Community Borehole"}}, {"type": "node", "id": 2344424478, "lat": 6.330799, "lon": 5.604953, "tags": {"man_made": "water_tower", "name": "Community Borehole"}}, {"type": "node", "id": 2344426725, "lat": 6.3388273, "lon": 5.6102842, "tags": {"man_made": "water_tower", "name": "Public Bore Hole"}}, {"type": "node", "id": 2344426726, "lat": 6.3390554, "lon": 5.6083558, "tags": {"man_made": "water_tower", "name": "Public Bore Hole"}}, {"type": "node", "id": 2344433184, "lat": 6.3207608, "lon": 5.59454, "tags": {"man_made": "water_tower", "name": "Community Borehole"}}, {"type": "node", "id": 2344468697, "lat": 6.3445515, "lon": 5.6076656, "tags": {"man_made": "water_tower", "name": "public borehole"}}, {"type": "node", "id": 2344503127, "lat": 6.3301497, "lon": 5.5917012, "tags": {"man_made": "water_tower", "name": "Public Borehole"}}, {"type": "node", "id": 2344512221, "lat": 6.3354938, "lon": 5.616487, "tags": {"man_made": "water_tower", "name": "MDGs Community Borehole"}}, {"type": "node", "id": 2344543064, "lat": 6.335361, "lon": 5.6109969, "tags": {"man_made": "water_tower", "name": "public borehole"}}, {"type": "node", "id": 2344584302, "lat": 6.3373022, "lon": 5.5950386, "tags": {"man_made": "water_tower", "name": "Public Bore Hole"}}, {"type": "node", "id": 2345400643, "lat": 6.3484489, "lon": 5.6081198, "tags": {"man_made": "water_tower", "name": "public_bolehole"}}, {"type": "node", "id": 2345400644, "lat": 6.3503289, "lon": 5.610246, "tags": {"man_made": "water_tower", "name": "public_bolehole"}}, {"type": "node", "id": 2349297913, "lat": 6.3246871, "lon": 5.6108831, "tags": {"man_made": "water_tower", "name": "Public Borehole"}}, {"type": "node", "id": 2349397487, "lat": 6.3348201, "lon": 5.6148356, "tags": {"man_made": "water_tower", "name": "Community Borehole"}}, {"type": "node", "id": 2349424011, "lat": 6.3517092, "lon": 5.6251635, "tags": {"man_made": "water_tower", "name": "Community Bore Hole"}}, {"type": "node", "id": 2349477435, "lat": 6.3389296, "lon": 5.6278479, "tags": {"man_made": "water_tower", "name": "Public borehole"}}, {"type": "node", "id": 2349477436, "lat": 6.3401373, "lon": 5.6280134, "tags": {"man_made": "water_tower", "name": "Public borehole"}}, {"type": "node", "id": 2349477437, "lat": 6.3418225, "lon": 5.6279679, "tags": {"man_made": "water_tower", "name": "Public borehole"}}, {"type": "node", "id": 2350849571, "lat": 6.3399694, "lon": 5.6205322, "tags": {"man_made": "water_tower", "name": "Community Borehole"}}, {"type": "node", "id": 2350849572, "lat": 6.3412046, "lon": 5.6200324, "tags": {"man_made": "water_tower", "name": "Community Borehole"}}, {"type": "node", "id": 2350849573, "lat": 6.3415702, "lon": 5.6238024, "tags": {"man_made": "water_tower", "name": "Community Borehole"}}, {"type": "node", "id": 2350849574, "lat": 6.3425664, "lon": 5.621996, "tags": {"man_made": "water_tower", "name": "Community Borehole"}}, {"type": "node", "id": 2350879762, "lat": 6.3407178, "lon": 5.6249211, "tags": {"man_made": "water_tower", "name": "Public Borehole"}}, {"type": "node", "id": 2350879763, "lat": 6.3415391, "lon": 5.6238143, "tags": {"man_made": "water_tower", "name": "Public Borehole"}}, {"type": "node", "id": 2350879800, "lat": 6.3459951, "lon": 5.6246949, "tags": {"man_made": "water_works", "name": "Urban Water Board"}}, {"type": "node", "id": 2350899875, "lat": 6.3481879, "lon": 5.6199522, "tags": {"man_made": "water_tower", "name": "Public Bolehole"}}, {"type": "node", "id": 2351090134, "lat": 6.3361962, "lon": 5.625165, "tags": {"man_made": "water_tower", "name": "Public Borehole"}}, {"type": "node", "id": 2351090136, "lat": 6.3386144, "lon": 5.6254444, "tags": {"man_made": "water_tower", "name": "Public Borehole"}}, {"type": "node", "id": 3084313973, "lat": 7.37352, "lon": 3.8926059, "tags": {"man_made": "water_well", "name": "Covered well"}}, {"type": "node", "id": 3084313975, "lat": 7.3733272, "lon": 3.8926813, "tags": {"man_made": "water_well", "name": "Covered well"}}, {"type": "node", "id": 3084313976, "lat": 7.3730556, "lon": 3.8929997, "tags": {"man_made": "water_well", "name": "Covered well"}}, {"type": "node", "id": 3084823629, "lat": 7.3727736, "lon": 3.893349, "tags": {"man_made": "water_well", "name": "Covered well"}}, {"type": "node", "id": 3084824642, "lat": 7.3730272, "lon": 3.8939696, "tags": {"man_made": "water_well", "name": "Covered well"}}, {"type": "node", "id": 3084824644, "lat": 7.3732475, "lon": 3.8941928, "tags": {"man_made": "water_well", "name": "Covered well"}}, {"type": "node", "id": 3084824649, "lat": 7.3742991, "lon": 3.8952064, "tags": {"man_made": "water_well", "name": "Bore Hole"}}, {"type": "node", "id": 3084930052, "lat": 7.3603526, "lon": 3.8894281, "tags": {"man_made": "water_well", "name": "Covered well"}}, {"type": "node", "id": 3084930058, "lat": 7.3602226, "lon": 3.8897291, "tags": {"man_made": "water_tower", "name": "Water Reservoir"}}, {"type": "node", "id": 3084930068, "lat": 7.3483895, "lon": 3.8740177, "tags": {"man_made": "water_well", "name": "Covered well"}}, {"type": "node", "id": 3084950766, "lat": 7.3780529, "lon": 3.8310632, "tags": {"man_made": "water_well", "name": "storage tank"}}, {"type": "node", "id": 3084968519, "lat": 7.3834399, "lon": 3.8774795, "tags": {"man_made": "water_well", "name": "Covered well"}}, {"type": "node", "id": 3084974660, "lat": 7.3767849, "lon": 3.8945585, "tags": {"man_made": "water_well", "name": "Bore Hole"}}, {"type": "node", "id": 3084974667, "lat": 7.3761953, "lon": 3.8943519, "tags": {"man_made": "water_well", "name": "Bore Hole"}}, {"type": "node", "id": 3084979303, "lat": 7.3760688, "lon": 3.8869766, "tags": {"man_made": "water_well", "name": "Closed well"}}, {"type": "node", "id": 3084979304, "lat": 7.3760934, "lon": 3.8873702, "tags": {"man_made": "water_well", "name": "Commercial Bore Hole"}}, {"type": "node", "id": 3085043979, "lat": 7.3659713, "lon": 3.9044108, "tags": {"man_made": "water_well", "name": "Covered Well"}}, {"type": "node", "id": 3085045266, "lat": 7.3929224, "lon": 3.8857222, "tags": {"man_made": "water_tower", "name": "Ogun Osun River Basin BoreHole,Idi-Oro Ekotedo"}}, {"type": "node", "id": 3085062210, "lat": 7.38173, "lon": 3.8946936, "tags": {"man_made": "water_tower", "name": "MDGs Borehole"}}, {"type": "node", "id": 6273839116, "lat": 7.6699086, "lon": 5.7587665, "tags": {"is_in:LGA": "Akoko North West", "is_in:ward": "Akoko North West", "lgacode": "29002", "man_made": "water_well", "name": "Millennium Development Goal Borehole", "source": "GRID", "type_waterpoint": "Borehole", "wardcode": "29002_01"}}, {"type": "node", "id": 6273839117, "lat": 7.6771611, "lon": 5.7632513, "tags": {"is_in:LGA": "Akoko North West", "is_in:ward": "Akoko North West", "lgacode": "29002", "man_made": "water_well", "name": "Palace Borehole", "source": "GRID", "type_waterpoint": "Borehole", "wardcode": "29002_01"}}, {"type": "node", "id": 6273839118, "lat": 7.6729058, "lon": 5.7636854, "tags": {"is_in:LGA": "Akoko North West", "is_in:ward": "Akoko North West", "lgacode": "29002", "man_made": "water_well", "name": "Olorun Sogo Borehole", "source": "GRID", "type_waterpoint": "Borehole", "wardcode": "29002_01"}}, {"type": "node", "id": 6273839119, "lat": 7.6763589, "lon": 5.7546926, "tags": {"is_in:LGA": "Akoko North West", "is_in:ward": "Akoko North West", "lgacode": "29002", "man_made": "water_well", "name": "Oguna Borehole", "source": "GRID", "type_waterpoint": "Borehole", "wardcode": "29002_01"}}, {"type": "node", "id": 6273839120, "lat": 7.6729538, "lon": 5.7575128, "tags": {"is_in:LGA": "Akoko North West", "is_in:ward": "Akoko North West", "lgacode": "29002", "man_made": "water_well", "name": "Ogotun Water Point", "source": "GRID", "type_waterpoint": "Borehole", "wardcode": "29002_01"}}, {"type": "node", "id": 6273839121, "lat": 7.08894, "lon": 5.6598517, "tags": {"is_in:LGA": "Owo", "is_in:ward": "Owo", "lgacode": "29018", "man_made": "water_well", "name": "Mr Gamiu Well", "source": "GRID", "type_waterpoint": "Wells", "wardcode": "29018_01"}}, {"type": "node", "id": 6273839122, "lat": 7.0890117, "lon": 5.66146, "tags": {"is_in:LGA": "Owo", "is_in:ward": "Owo", "lgacode": "29018", "man_made": "water_well", "name": "Mr Sani Well", "source": "GRID", "type_waterpoint": "Wells", "wardcode": "29018_01"}}, {"type": "node", "id": 6273839123, "lat": 7.0868733, "lon": 5.6646167, "tags": {"is_in:LGA": "Owo", "is_in:ward": "Owo", "lgacode": "29018", "man_made": "water_well", "name": "Muqsi Water Tap", "source": "GRID", "type_waterpoint": "Waterworks", "wardcode": "29018_01"}}, {"type": "node", "id": 6273839124, "lat": 7.0882717, "lon": 5.6651933, "tags": {"is_in:LGA": "Owo", "is_in:ward": "Owo", "lgacode": "29018", "man_made": "water_well", "name": "Mr kurako Well", "source": "GRID", "type_waterpoint": "Wells", "wardcode": "29018_01"}}, {"type": "node", "id": 6273839125, "lat": 7.0891236, "lon": 5.6651882, "tags": {"is_in:LGA": "Owo", "is_in:ward": "Owo", "lgacode": "29018", "man_made": "water_well", "name": "Union Project Water Tap", "source": "GRID", "type_waterpoint": "Waterworks", "wardcode": "29018_01"}}, {"type": "node", "id": 6273839126, "lat": 7.6741493, "lon": 5.8955484, "tags": {"is_in:LGA": "Akoko North West", "is_in:ward": "Akoko North West", "lgacode": "29002", "man_made": "water_well", "name": "Ajowa Borehole", "source": "GRID", "type_waterpoint": "Borehole", "wardcode": "29002_01"}}, {"type": "node", "id": 6273839127, "lat": 7.6776169, "lon": 5.8985581, "tags": {"is_in:LGA": "Akoko North West", "is_in:ward": "Akoko North West", "lgacode": "29002", "man_made": "water_well", "name": "Public Borehole", "source": "GRID", "type_waterpoint": "Borehole", "wardcode": "29002_01"}}, {"type": "node", "id": 6273839128, "lat": 7.6794797, "lon": 5.9020014, "tags": {"is_in:LGA": "Akoko North West", "is_in:ward": "Akoko North West", "lgacode": "29002", "man_made": "water_well", "name": "Ajowa Water Point", "source": "GRID", "type_waterpoint": "Borehole", "wardcode": "29002_01"}}, {"type": "node", "id": 6273839129, "lat": 7.20102, "lon": 5.0308067, "tags": {"is_in:LGA": "Idanre", "is_in:ward": "Owena-Aponmu", "lgacode": "29008", "man_made": "water_well", "name": "Agagu Water Tap", "source": "GRID", "type_waterpoint": "Waterworks", "wardcode": "ODSIDNE10"}}, {"type": "node", "id": 6273839130, "lat": 7.2515117, "lon": 5.1729967, "tags": {"drinking_water": "yes", "is_in:LGA": "Akure South", "is_in:ward": "Akure South", "lgacode": "29006", "man_made": "water_well", "name": "Agagu Water Tap", "source": "GRID", "type_waterpoint": "Waterworks", "wardcode": "29006_01"}}, {"type": "node", "id": 6273839131, "lat": 7.3673083, "lon": 4.86793, "tags": {"lgacode": "29011", "man_made": "water_well", "name": "Community Borehole B", "source": "GRID", "type_waterpoint": "Borehole", "wardcode": "ODSIOU06"}}, {"type": "node", "id": 6273839132, "lat": 7.3677833, "lon": 4.8685867, "tags": {"lgacode": "29011", "man_made": "water_well", "name": "Community Borehole A", "source": "GRID", "type_waterpoint": "Borehole", "wardcode": "ODSIOU06"}}, {"type": "node", "id": 6273839133, "lat": 7.3974879, "lon": 5.1853812, "tags": {"is_in:LGA": "Ifedore", "is_in:ward": "Ijare-1", "lgacode": "29009", "man_made": "water_well", "name": "Agamo Water Tap", "source": "GRID", "type_waterpoint": "Waterworks", "wardcode": "ODSIDE04"}}, {"type": "node", "id": 6273839134, "lat": 7.167575, "lon": 5.134765, "tags": {"is_in:LGA": "Idanre", "is_in:ward": "Alade-Atosin", "lgacode": "29008", "man_made": "water_well", "name": "Ita Oloorun Borehole", "source": "GRID", "type_waterpoint": "Borehole", "wardcode": "ODSIDNE01"}}, {"type": "node", "id": 6273839135, "lat": 6.995965, "lon": 5.2353933, "tags": {"is_in:LGA": "Idanre", "is_in:ward": "Idale-Lemikan", "lgacode": "29008", "man_made": "water_well", "name": "Obi Water Tap", "source": "GRID", "type_waterpoint": "Waterworks", "wardcode": "ODSIDNE03"}}, {"type": "node", "id": 6273839136, "lat": 6.99056, "lon": 5.23862, "tags": {"is_in:LGA": "Idanre", "is_in:ward": "Idale-Lemikan", "lgacode": "29008", "man_made": "water_well", "name": "Well", "source": "GRID", "type_waterpoint": "Wells", "wardcode": "ODSIDNE03"}}, {"type": "node", "id": 6273839137, "lat": 7.4028817, "lon": 5.0045383, "tags": {"is_in:LGA": "Ifedore", "is_in:ward": "Isarun/Owena", "lgacode": "29009", "man_made": "water_well", "name": "Borehole Water Point", "source": "GRID", "type_waterpoint": "Borehole", "wardcode": "ODSIDE10"}}, {"type": "node", "id": 9532325162, "lat": 5.5001971, "lon": 6.7294761, "tags": {"access": "yes", "amenity": "water_point", "drinking_water": "yes", "man_made": "borehole", "name": "Central Water", "source": "Nigerian Red Cross Society"}}, {"type": "node", "id": 11569747507, "lat": 4.8647479, "lon": 7.0559229, "tags": {"man_made": "water_tower", "name": "Tank"}}, {"type": "node", "id": 12281589004, "lat": 6.6059, "lon": 3.431767, "tags": {"facility_manager": "private/individual", "man_made": "water_well", "name": "well", "operator": "private/individual", "source:position": "gps", "status": "functional", "users_PLWD": "no", "users_boy": "yes", "users_elderly": "yes", "users_female": "yes", "users_girl": "yes", "users_men": "yes"}}, {"type": "node", "id": 12281589005, "lat": 6.601859, "lon": 3.418862, "tags": {"facility_manager": "community", "man_made": "water_well", "name": "community well", "operator": "community", "source:position": "gps", "status": "functional", "users_PLWD": "yes", "users_boy": "yes", "users_elderly": "yes", "users_female": "yes", "users_girl": "yes", "users_men": "yes"}}, {"type": "node", "id": 12287933418, "lat": 6.5228371, "lon": 3.2308873, "tags": {"facility_use": "water provisions", "latitude": "6.5228371", "longitude": "3.2308873", "man_made": "water_well", "name": "Well", "operator": "community", "source": "survey", "status": "functional"}}, {"type": "node", "id": 12287933419, "lat": 6.5276956, "lon": 3.2292693, "tags": {"facility_use": "domestic use", "latitude": "6.5276956", "longitude": "3.2292693", "man_made": "water_well", "name": "Public well", "operator": "private/ individual", "source": "survey", "status": "functional"}}, {"type": "node", "id": 12857140703, "lat": 4.4273061, "lon": 7.1903361, "tags": {"access": "private", "drinking_water": "yes", "man_made": "water_well", "name": "Well 2", "operator": "NLNG", "pump": "powered"}}, {"type": "node", "id": 12857140704, "lat": 4.4263322, "lon": 7.1929409, "tags": {"access": "private", "drinking_water": "yes", "man_made": "water_well", "name": "Well 3", "operator": "NLNG", "pump": "powered"}}, {"type": "node", "id": 12857140705, "lat": 4.4253794, "lon": 7.1954679, "tags": {"access": "private", "drinking_water": "yes", "man_made": "water_well", "name": "Well 4", "operator": "NLNG", "pump": "powered"}}, {"type": "node", "id": 12857140706, "lat": 4.4244973, "lon": 7.1979737, "tags": {"drinking_water": "yes", "man_made": "water_well", "name": "Well 5", "operator": "NLNG", "pump": "powered"}}, {"type": "node", "id": 12857140707, "lat": 4.4236433, "lon": 7.2004369, "tags": {"access": "private", "drinking_water": "yes", "man_made": "water_well", "name": "Well 6", "operator": "NLNG", "pump": "powered"}}, {"type": "node", "id": 12857140708, "lat": 4.4226513, "lon": 7.2030675, "tags": {"access": "private", "drinking_water": "yes", "man_made": "water_well", "name": "Well 7", "operator": "NLNG", "pump": "powered"}}, {"type": "node", "id": 12857140709, "lat": 4.4216888, "lon": 7.2055934, "tags": {"access": "private", "drinking_water": "yes", "man_made": "water_well", "name": "Well 8", "operator": "NLNG", "pump": "powered"}}, {"type": "node", "id": 12857140710, "lat": 4.4207582, "lon": 7.2080986, "tags": {"access": "yes", "drinking_water": "yes", "man_made": "water_well", "name": "Well 9", "operator": "NLNG", "pump": "powered"}}, {"type": "node", "id": 12857140711, "lat": 4.4198917, "lon": 7.2103409, "tags": {"access": "private", "drinking_water": "yes", "man_made": "water_well", "name": "Well 10", "operator": "NLNG", "pump": "powered"}}, {"type": "node", "id": 12857140712, "lat": 4.4188809, "lon": 7.2128676, "tags": {"access": "private", "drinking_water": "yes", "man_made": "water_well", "name": "Well 11", "operator": "NLNG", "pump": "powered"}}, {"type": "node", "id": 12857140713, "lat": 4.4175919, "lon": 7.2155766, "tags": {"access": "private", "drinking_water": "yes", "man_made": "water_well", "name": "Well 12", "operator": "NLNG", "pump": "powered"}}, {"type": "way", "id": 598412434, "center": {"lat": 6.4405567, "lon": 3.4739178}, "tags": {"man_made": "water_works", "name": "Lagos State Water Corporation"}}, {"type": "way", "id": 608702306, "center": {"lat": 6.4242105, "lon": 7.5041547}, "tags": {"man_made": "water_tower", "name": "UNEC water Reservoir", "operator": "University of Nigeria Works Department"}}, {"type": "way", "id": 629564908, "center": {"lat": 6.4277836, "lon": 3.4228277}, "tags": {"landuse": "industrial", "man_made": "water_works", "name": "Lagos State Water Corporation"}}, {"type": "way", "id": 797275000, "center": {"lat": 6.6163196, "lon": 3.5145038}, "tags": {"man_made": "water_works", "name": "Water Works"}}]}