{"source": "overpass_api", "state": "sokoto", "category_group": "food_hotel_edu", "query_method": "area_admin_level_4", "retrieved_at": "2026-04-22", "total_elements": 10, "named_elements": 9, "elements": [{"type": "node", "id": 5560232821, "lat": 13.0268336, "lon": 5.2201751, "tags": {"addr:housenumber": "No.1", "addr:street": "Kalambaina Road", "name": "Sokoto Guest Inn Limited", "tourism": "hotel"}}, {"type": "node", "id": 5685742421, "lat": 13.0270409, "lon": 5.2213295, "tags": {"name": "Dankani Guest Place", "tourism": "hotel"}}, {"type": "node", "id": 5836592703, "lat": 13.0604765, "lon": 5.2190171, "tags": {"name": "Grand ibro oasis hotel", "tourism": "hotel"}}, {"type": "node", "id": 5836592704, "lat": 13.066688, "lon": 5.2333248, "tags": {"name": "Pinnade hotel", "tourism": "hotel"}}, {"type": "node", "id": 5836592705, "lat": 13.0373695, "lon": 5.2153218, "tags": {"name": "Giginya Coral Hotel", "tourism": "hotel"}}, {"type": "node", "id": 5836592706, "lat": 13.0020589, "lon": 5.2479525, "tags": {"name": "Phoenix Guest Inn", "tourism": "hotel"}}, {"type": "node", "id": 5836592710, "lat": 13.038336, "lon": 5.2350514, "tags": {"name": "Shukura Hotel", "tourism": "hotel"}}, {"type": "node", "id": 5836592711, "lat": 13.0668817, "lon": 5.2488001, "tags": {"name": "Sultan Palace", "tourism": "hotel"}}, {"type": "node", "id": 5836592712, "lat": 13.0021303, "lon": 5.2470474, "tags": {"name": "Taraka Hotal", "tourism": "hotel"}}, {"type": "node", "id": 9026582039, "lat": 13.0641156, "lon": 5.1728037, "tags": {"amenity": "restaurant"}}]}