{"source": "overpass_api", "state": "taraba", "category_group": "faith_transport", "query_method": "area_admin_level_4", "retrieved_at": "2026-04-22", "total_elements": 5, "named_elements": 5, "elements": [{"type": "way", "id": 1226922973, "center": {"lat": 8.9481007, "lon": 11.3713365}, "tags": {"amenity": "place_of_worship", "building": "church", "denomination": "roman_catholic", "name": "Our Lady Queen Of Peace Catholic Cathedral", "religion": "christian"}}, {"type": "way", "id": 1304154373, "center": {"lat": 8.9262812, "lon": 11.3264068}, "tags": {"amenity": "place_of_worship", "building": "church", "denomination": "roman_catholic", "name": "St. Peter`s Catholic Church", "religion": "christian"}}, {"type": "way", "id": 1304154377, "center": {"lat": 8.9266773, "lon": 11.3268225}, "tags": {"amenity": "place_of_worship", "building": "church", "denomination": "methodist", "name": "United Methodist Church Nukkai, Jalingo", "religion": "christian"}}, {"type": "way", "id": 1304919124, "center": {"lat": 8.9556657, "lon": 11.3665554}, "tags": {"amenity": "place_of_worship", "building": "church", "denomination": "evangelical", "name": "ECWA (Evangelical Church Winning All) Church No. 5", "religion": "christian"}}, {"type": "way", "id": 1304919126, "center": {"lat": 8.9567305, "lon": 11.3675498}, "tags": {"amenity": "place_of_worship", "building": "church", "denomination": "reformed", "name": "HEKAN Church (United Church of Christ in Nations - Hadaddiyar Ekklisiyar Kristi a Nahiyya) Jalingo", "religion": "christian"}}]}